RX_ESP_elapsed_us,PC_time_us,UTC_Date,UTC_Time,AccX,AccY,AccZ,GyroX,GyroY,GyroZ,MagX,MagY,MagZ,Temp,Roll,Pitch,Yaw,Lat,Lng,Speed_kmph,Alt_meters,Satellites,HDOP,Heading,REC,FileName
726488,1766652725369722,0,0,-0.0029,0.0003,1.0002,-0.0053,-0.0564,0.0021,-35.7276,5.3943,39.8744,23.98,-0.11,0.18,8.12,0.0,0.0,0.0,0.0,0,0.0,0.0,1,/data_0006-0.
623730488,1766652725373722,0,0,-0.0027,0.0002,1.0001,-0.0129,-0.0411,-0.0055,-35.7276,5.3943,39.8744,23.98,-0.11,0.17,8.12,0.0,0.0,0.0,0.0,0,0.0,0.0,1,/data_0006-0.
623734491,1766652725377725,0,0,-0.0024,0.0003,0.9996,0.0024,-0.0411,-0.0131,-35.7276,5.3943,39.8744,23.98,-0.1,0.17,8.13,0.0,0.0,0.0,0.0,0,0.0,0.0,1,/data_0006-0.
623774488,1766652725417722,0,0,-0.0029,-0.0001,0.9994,0.0024,-0.0258,-0.0208,-35.7276,5.3943,39.8744,23.97,-0.04,0.16,8.16,0.0,0.0,0.0,0.0,0,0.0,0.0,1,/data_0006-0.
623778236,1766652725421470,0,0,-0.0029,0.0,0.9993,0.01,-0.0335,-0.0436,-35.7276,5.3943,39.8744,23.97,-0.04,0.16,8.16,0.0,0.0,0.0,0.0,0,0.0,0.0,1,/data_0006-0.
623782492,1766652725425726,0,0,-0.003,-0.0001,0.9998,0.0024,-0.0411,-0.036,-35.7276,5.3943,39.8744,23.98,-0.03,0.16,8.17,0.0,0.0,0.0,0.0,0,0.0,0.0,1,/data_0006-0.
623786488,1766652725429722,0,0,-0.0028,0.0,1.0,0.01,-0.0335,-0.036,-35.7276,5.3943,39.8744,23.98,-0.03,0.16,8.17,0.0,0.0,0.0,0.0,0,0.0,0.0,1,/data_0006-0.
623842488,1766652725485722,0,0,-0.0027,0.0002,0.9999,0.0481,-0.0106,0.0174,-33.584,5.0347,38.1407,23.99,0.02,0.16,8.21,0.0,0.0,0.0,0.0,0,0.0,0.0,1,/data_0006-0.
623846488,1766652725489722,0,0,-0.0026,0.0,1.0003,0.0329,-0.0258,0.0098,-33.584,5.0347,38.1407,23.98,0.02,0.16,8.21,0.0,0.0,0.0,0.0,0,0.0,0.0,1,/data_0006-0.
623850488,1766652725493722,0,0,-0.0027,-0.0001,1.0007,0.0405,-0.0335,0.0021,-33.584,5.0347,38.1407,23.98,0.02,0.16,8.21,0.0,0.0,0.0,0.0,0,0.0,0.0,1,/data_0006-0.
623854488,1766652725497722,0,0,-0.0027,-0.0,1.001,0.0405,-0.0411,-0.0284,-33.584,5.0347,38.1407,23.98,0.02,0.16,8.21,0.0,0.0,0.0,0.0,0,0.0,0.0,1,/data_0006-0.
623894488,1766652725537722,0,0,-0.0027,0.0,1.0001,0.0329,-0.0564,-0.0436,-33.584,5.0347,38.1407,23.97,0.04,0.15,8.23,0.0,0.0,0.0,0.0,0,0.0,0.0,1,/data_0006-0.
623898488,1766652725541722,0,0,-0.0027,0.0,1.0001,0.0405,-0.064,-0.0589,-33.584,5.0347,38.1407,23.97,0.04,0.15,8.23,0.0,0.0,0.0,0.0,0,0.0,0.0,1,/data_0006-0.
623902488,1766652725545722,0,0,-0.0027,0.0001,1.0001,0.0329,-0.0564,-0.0513,-33.584,5.0347,38.1407,23.97,0.04,0.15,8.23,0.0,0.0,0.0,0.0,0,0.0,0.0,1,/data_0006-0.
623906488,1766652725549722,0,0,-0.0023,0.0002,0.9998,0.0329,-0.0564,-0.0513,-33.584,5.0347,38.1407,23.97,0.04,0.15,8.24,0.0,0.0,0.0,0.0,0,0.0,0.0,1,/data_0006-0.
623959488,1766652725602722,0,0,-0.0027,0.0007,1.0003,0.0329,-0.0335,-0.0131,-33.584,5.0347,38.1407,23.97,0.05,0.15,8.26,0.0,0.0,0.0,0.0,0,0.0,0.0,1,/data_0006-0.
623963488,1766652725606722,0,0,-0.0027,0.0005,1.0001,0.0405,-0.0182,-0.036,-33.584,5.0347,38.1407,23.98,0.05,0.15,8.26,0.0,0.0,0.0,0.0,0,0.0,0.0,1,/data_0006-0.
623967488,1766652725610722,0,0,-0.0027,0.0005,1.0,0.0405,-0.0258,-0.0208,-33.9413,3.2366,39.1809,23.98,0.04,0.15,8.25,0.0,0.0,0.0,0.0,0,0.0,0.0,1,/data_0006-0.
623971488,1766652725614722,0,0,-0.0024,0.0004,1.0004,0.0329,-0.0258,-0.0131,-33.9413,3.2366,39.1809,23.98,0.02,0.15,8.24,0.0,0.0,0.0,0.0,0,0.0,0.0,1,/data_0006-0.
624015488,1766652725658722,0,0,-0.0027,0.0005,1.0006,0.0329,-0.0182,0.0327,-33.9413,3.2366,39.1809,23.98,-0.15,0.17,8.06,0.0,0.0,0.0,0.0,0,0.0,0.0,1,/data_0006-0.
624019488,1766652725662722,0,0,-0.0029,0.0007,1.0003,0.01,-0.0258,0.025,-33.9413,3.2366,39.1809,23.98,-0.16,0.17,8.04,0.0,0.0,0.0,0.0,0,0.0,0.0,1,/data_0006-0.
624023488,1766652725666722,0,0,-0.0027,0.0005,1.0003,0.0176,-0.0182,0.025,-33.9413,3.2366,39.1809,23.98,-0.17,0.17,8.03,0.0,0.0,0.0,0.0,0,0.0,0.0,1,/data_0006-0.
624027488,1766652725670722,0,0,-0.0027,0.0005,1.0003,0.0176,-0.0335,0.025,-33.9413,3.2366,39.1809,23.98,-0.18,0.17,8.01,0.0,0.0,0.0,0.0,0,0.0,0.0,1,/data_0006-0.
624075488,1766652725718722,0,0,-0.0031,-0.0002,0.9995,0.0481,-0.003,0.0021,-33.9413,3.2366,39.1809,23.98,-0.28,0.19,7.85,0.0,0.0,0.0,0.0,0,0.0,0.0,1,/data_0006-0.
624079234,1766652725722468,0,0,-0.0029,-0.0003,0.9992,0.0558,-0.0258,0.0098,-33.9413,3.2366,39.1809,23.98,-0.29,0.19,7.84,0.0,0.0,0.0,0.0,0,0.0,0.0,1,/data_0006-0.
624083262,1766652725726496,0,0,-0.0029,-0.0003,0.999,0.0405,-0.0182,-0.0055,-33.9413,3.2366,39.1809,23.97,-0.3,0.19,7.82,0.0,0.0,0.0,0.0,0,0.0,0.0,1,/data_0006-0.
624087235,1766652725730469,0,0,-0.0026,-0.0002,0.9991,0.0329,-0.0335,-0.0055,-33.9413,3.2366,39.1809,23.97,-0.3,0.19,7.81,0.0,0.0,0.0,0.0,0,0.0,0.0,1,/data_0006-0.
624135488,1766652725778722,0,0,-0.0028,0.0002,0.9992,0.0405,-0.0411,-0.0513,-33.4053,4.4952,39.0076,23.98,-0.21,0.18,7.81,0.0,0.0,0.0,0.0,0,0.0,0.0,1,/data_0006-0.
624139488,1766652725782722,0,0,-0.0029,0.0001,0.9988,0.0558,-0.0411,-0.0436,-33.4053,4.4952,39.0076,23.98,-0.2,0.18,7.81,0.0,0.0,0.0,0.0,0,0.0,0.0,1,/data_0006-0.
624143488,1766652725786722,0,0,-0.0029,0.0002,0.999,0.0481,-0.0564,-0.0284,-33.4053,4.4952,39.0076,23.97,-0.19,0.18,7.81,0.0,0.0,0.0,0.0,0,0.0,0.0,1,/data_0006-0.
624147488,1766652725790722,0,0,-0.003,0.0,0.9993,0.0405,-0.0335,-0.036,-33.4053,4.4952,39.0076,23.98,-0.19,0.17,7.82,0.0,0.0,0.0,0.0,0,0.0,0.0,1,/data_0006-0.
624199488,1766652725842722,0,0,-0.0027,0.0002,0.9995,0.0253,-0.0487,0.0174,-33.4053,4.4952,39.0076,23.98,-0.12,0.16,7.82,0.0,0.0,0.0,0.0,0,0.0,0.0,1,/data_0006-0.
624203488,1766652725846722,0,0,-0.0026,0.0002,0.9996,0.0176,-0.0487,0.0098,-33.4053,4.4952,39.0076,23.98,-0.12,0.16,7.82,0.0,0.0,0.0,0.0,0,0.0,0.0,1,/data_0006-0.
624207488,1766652725850722,0,0,-0.0025,0.0002,0.9993,0.0329,-0.0411,0.0021,-33.4053,4.4952,39.0076,23.98,-0.11,0.16,7.82,0.0,0.0,0.0,0.0,0,0.0,0.0,1,/data_0006-0.
624211488,1766652725854722,0,0,-0.0023,0.0,0.9993,0.0253,-0.0411,0.0021,-33.4053,4.4952,39.0076,23.97,-0.11,0.16,7.82,0.0,0.0,0.0,0.0,0,0.0,0.0,1,/data_0006-0.
624263488,1766652725906722,0,0,-0.0026,-0.0003,1.0008,0.0329,-0.0258,0.0174,-32.5122,5.7539,37.794,23.98,0.07,0.13,7.98,0.0,0.0,0.0,0.0,0,0.0,0.0,1,/data_0006-0.
624267488,1766652725910722,0,0,-0.0022,-0.0001,1.0006,0.0176,-0.0258,0.0174,-32.5122,5.7539,37.794,23.98,0.08,0.13,7.99,0.0,0.0,0.0,0.0,0,0.0,0.0,1,/data_0006-0.
624271488,1766652725914722,0,0,-0.0023,0.0,1.0007,0.0176,-0.0258,0.0174,-32.5122,5.7539,37.794,23.98,0.09,0.12,8.01,0.0,0.0,0.0,0.0,0,0.0,0.0,1,/data_0006-0.
624275488,1766652725918722,0,0,-0.0024,0.0002,1.0006,0.0024,-0.0258,0.0479,-32.5122,5.7539,37.794,23.98,0.1,0.12,8.02,0.0,0.0,0.0,0.0,0,0.0,0.0,1,/data_0006-0.
624319488,1766652725962722,0,0,-0.0023,-0.0,1.0001,0.01,-0.0182,0.0098,-32.5122,5.7539,37.794,23.99,0.2,0.11,8.14,0.0,0.0,0.0,0.0,0,0.0,0.0,1,/data_0006-0.
624323488,1766652725966722,0,0,-0.0025,0.0001,1.0001,0.0024,-0.0258,0.0174,-32.5122,5.7539,37.794,23.98,0.2,0.11,8.15,0.0,0.0,0.0,0.0,0,0.0,0.0,1,/data_0006-0.
624327488,1766652725970722,0,0,-0.0024,0.0002,1.0004,0.0176,-0.0258,-0.0131,-32.5122,5.7539,37.794,23.98,0.21,0.11,8.16,0.0,0.0,0.0,0.0,0,0.0,0.0,1,/data_0006-0.
624331488,1766652725974722,0,0,-0.0023,0.0005,1.0006,0.0253,-0.0335,0.0174,-32.5122,5.7539,37.794,23.98,0.21,0.1,8.17,0.0,0.0,0.0,0.0,0,0.0,0.0,1,/data_0006-0.
624383234,1766652726026468,0,0,-0.0022,-0.0003,1.001,-0.0205,-0.0182,0.0098,-32.5122,5.7539,37.794,23.98,0.27,0.1,8.3,0.0,0.0,0.0,0.0,0,0.0,0.0,1,/data_0006-0.
624387488,1766652726030722,0,0,-0.0021,-0.0003,1.0011,-0.0205,-0.003,0.0098,-32.5122,5.7539,37.794,23.98,0.27,0.1,8.31,0.0,0.0,0.0,0.0,0,0.0,0.0,1,/data_0006-0.
624391235,1766652726034469,0,0,-0.0024,-0.0004,1.0015,-0.0129,0.0123,-0.0055,-32.5122,5.7539,37.794,23.98,0.27,0.1,8.32,0.0,0.0,0.0,0.0,0,0.0,0.0,1,/data_0006-0.
624395234,1766652726038468,0,0,-0.0024,-0.0001,1.0013,-0.0129,0.0047,-0.0208,-32.5122,5.7539,37.794,23.99,0.27,0.1,8.33,0.0,0.0,0.0,0.0,0,0.0,0.0,1,/data_0006-0.
624439488,1766652726082722,0,0,-0.0023,0.0003,0.9994,0.01,-0.0106,-0.036,-32.5122,5.7539,37.794,23.98,0.29,0.09,8.42,0.0,0.0,0.0,0.0,0,0.0,0.0,1,/data_0006-0.
624443242,1766652726086476,0,0,-0.0021,0.0002,0.9997,0.01,-0.0106,-0.0208,-32.5122,5.7539,37.794,23.98,0.29,0.09,8.43,0.0,0.0,0.0,0.0,0,0.0,0.0,1,/data_0006-0.
624447488,1766652726090722,0,0,-0.002,0.0003,0.9995,0.0024,-0.0182,-0.0131,-32.5122,5.7539,37.794,23.98,0.3,0.09,8.44,0.0,0.0,0.0,0.0,0,0.0,0.0,1,/data_0006-0.
624451235,1766652726094469,0,0,-0.0021,-0.0,0.9996,0.0024,-0.0182,-0.0055,-32.5122,5.7539,37.794,23.98,0.3,0.09,8.45,0.0,0.0,0.0,0.0,0,0.0,0.0,1,/data_0006-0.
624503488,1766652726146722,0,0,-0.0026,0.0007,1.0005,0.0329,-0.0258,0.025,-35.3704,5.0347,38.4875,23.98,0.2,0.1,8.44,0.0,0.0,0.0,0.0,0,0.0,0.0,1,/data_0006-0.
624507488,1766652726150722,0,0,-0.0026,0.0005,1.0006,0.0253,-0.0335,0.0174,-35.3704,5.0347,38.4875,23.97,0.19,0.1,8.44,0.0,0.0,0.0,0.0,0,0.0,0.0,1,/data_0006-0.
624511488,1766652726154722,0,0,-0.0022,0.0004,1.0003,0.0329,-0.0182,-0.0055,-35.3704,5.0347,38.4875,23.98,0.19,0.11,8.44,0.0,0.0,0.0,0.0,0,0.0,0.0,1,/data_0006-0.
624515488,1766652726158722,0,0,-0.0019,0.0004,0.9999,0.0329,-0.0182,0.0021,-35.3704,5.0347,38.4875,23.98,0.18,0.11,8.43,0.0,0.0,0.0,0.0,0,0.0,0.0,1,/data_0006-0.
624559488,1766652726202722,0,0,-0.0022,-0.0001,0.9993,0.0481,-0.0411,0.0174,-35.3704,5.0347,38.4875,23.97,0.11,0.12,8.4,0.0,0.0,0.0,0.0,0,0.0,0.0,1,/data_0006-0.
624563488,1766652726206722,0,0,-0.0021,-0.0001,0.9998,0.0405,-0.0335,0.0098,-35.3704,5.0347,38.4875,23.97,0.1,0.12,8.4,0.0,0.0,0.0,0.0,0,0.0,0.0,1,/data_0006-0.
624567488,1766652726210722,0,0,-0.0021,-0.0,1.0,0.0329,-0.0564,0.0327,-35.3704,5.0347,38.4875,23.98,0.09,0.12,8.4,0.0,0.0,0.0,0.0,0,0.0,0.0,1,/data_0006-0.
624571488,1766652726214722,0,0,-0.0021,0.0003,0.9999,0.0405,-0.0487,0.0403,-35.3704,5.0347,38.4875,23.98,0.09,0.12,8.39,0.0,0.0,0.0,0.0,0,0.0,0.0,1,/data_0006-0.
624623488,1766652726266722,0,0,-0.0031,0.0005,0.9999,0.0481,0.0123,-0.0284,-34.2985,6.4731,39.1809,23.99,0.17,0.11,8.49,0.0,0.0,0.0,0.0,0,0.0,0.0,1,/data_0006-0.
624628487,1766652726271721,0,0,-0.0031,0.0007,0.9989,0.0329,0.0123,-0.0284,-34.2985,6.4731,39.1809,23.99,0.18,0.11,8.5,0.0,0.0,0.0,0.0,0,0.0,0.0,1,/data_0006-0.
624632489,1766652726275723,0,0,-0.0032,0.0007,0.999,0.0405,-0.003,-0.0208,-34.2985,6.4731,39.1809,23.99,0.19,0.11,8.52,0.0,0.0,0.0,0.0,0,0.0,0.0,1,/data_0006-0.
624636488,1766652726279722,0,0,-0.003,0.0004,0.9993,0.0405,-0.0182,-0.0208,-34.2985,6.4731,39.1809,23.99,0.2,0.11,8.53,0.0,0.0,0.0,0.0,0,0.0,0.0,1,/data_0006-0.
624680488,1766652726323722,0,0,-0.0027,0.0002,0.9985,0.0634,-0.003,0.0174,-34.2985,6.4731,39.1809,23.99,0.27,0.11,8.66,0.0,0.0,0.0,0.0,0,0.0,0.0,1,/data_0006-0.
624684243,1766652726327477,0,0,-0.0024,-0.0,0.9985,0.0558,-0.0106,0.0098,-34.2985,6.4731,39.1809,23.99,0.27,0.11,8.67,0.0,0.0,0.0,0.0,0,0.0,0.0,1,/data_0006-0.
624688234,1766652726331468,0,0,-0.0026,-0.0003,0.9987,0.0481,-0.0106,0.0021,-34.2985,6.4731,39.1809,23.98,0.28,0.1,8.68,0.0,0.0,0.0,0.0,0,0.0,0.0,1,/data_0006-0.
624692488,1766652726335722,0,0,-0.0026,-0.0001,0.9989,0.0405,-0.0182,0.0021,-34.2985,6.4731,39.1809,23.97,0.28,0.1,8.69,0.0,0.0,0.0,0.0,0,0.0,0.0,1,/data_0006-0.
624744488,1766652726387722,0,0,-0.002,0.0001,1.0006,0.0176,-0.0182,0.0021,-33.9413,5.0347,38.8342,24.0,0.23,0.11,8.73,0.0,0.0,0.0,0.0,0,0.0,0.0,1,/data_0006-0.
624748242,1766652726391476,0,0,-0.0023,0.0002,1.0003,0.0253,-0.0182,0.0021,-33.9413,5.0347,38.8342,23.99,0.22,0.11,8.73,0.0,0.0,0.0,0.0,0,0.0,0.0,1,/data_0006-0.
624752488,1766652726395722,0,0,-0.0023,0.0001,1.0001,-0.0053,-0.0182,0.0174,-33.9413,5.0347,38.8342,23.99,0.21,0.11,8.72,0.0,0.0,0.0,0.0,0,0.0,0.0,1,/data_0006-0.
624756235,1766652726399469,0,0,-0.0024,-0.0002,1.0,-0.0129,-0.0106,0.0174,-33.9413,5.0347,38.8342,23.98,0.2,0.11,8.72,0.0,0.0,0.0,0.0,0,0.0,0.0,1,/data_0006-0.
624800488,1766652726443722,0,0,-0.0027,-0.0001,0.999,0.0405,-0.0335,-0.0055,-33.9413,5.0347,38.8342,23.99,0.12,0.12,8.69,0.0,0.0,0.0,0.0,0,0.0,0.0,1,/data_0006-0.
624804488,1766652726447722,0,0,-0.0029,-0.0,0.999,0.0405,-0.0258,-0.0055,-33.9413,5.0347,38.8342,23.99,0.11,0.13,8.69,0.0,0.0,0.0,0.0,0,0.0,0.0,1,/data_0006-0.
624808488,1766652726451722,0,0,-0.0026,-0.0002,0.999,0.0405,-0.0182,-0.0208,-33.9413,5.0347,38.8342,23.99,0.1,0.13,8.69,0.0,0.0,0.0,0.0,0,0.0,0.0,1,/data_0006-0.
624812488,1766652726455722,0,0,-0.0027,-0.0002,0.9989,0.0253,-0.0182,-0.0055,-33.9413,5.0347,38.8342,24.0,0.1,0.13,8.69,0.0,0.0,0.0,0.0,0,0.0,0.0,1,/data_0006-0.
624864488,1766652726507722,0,0,-0.0025,0.0006,1.0001,-0.0282,-0.0182,0.0479,-34.1199,5.2145,38.6608,23.98,0.06,0.14,8.67,0.0,0.0,0.0,0.0,0,0.0,0.0,1,/data_0006-0.
624868488,1766652726511722,0,0,-0.0026,0.0005,1.0003,-0.0282,-0.0335,0.025,-34.1199,5.2145,38.6608,23.99,0.06,0.14,8.67,0.0,0.0,0.0,0.0,0,0.0,0.0,1,/data_0006-0.
624872488,1766652726515722,0,0,-0.0026,-0.0,0.9999,-0.0205,-0.0258,0.0021,-34.1199,5.2145,38.6608,23.99,0.06,0.14,8.67,0.0,0.0,0.0,0.0,0,0.0,0.0,1,/data_0006-0.
624876488,1766652726519722,0,0,-0.0027,-0.0001,1.0003,-0.0129,-0.0258,0.025,-34.1199,5.2145,38.6608,23.99,0.05,0.14,8.67,0.0,0.0,0.0,0.0,0,0.0,0.0,1,/data_0006-0.
624916487,1766652726559721,0,0,-0.0023,0.0003,1.0001,0.0024,-0.0182,-0.0284,-34.1199,5.2145,38.6608,23.99,0.04,0.13,8.67,0.0,0.0,0.0,0.0,0,0.0,0.0,1,/data_0006-0.
624920488,1766652726563722,0,0,-0.0026,0.0006,0.9997,-0.0053,-0.0182,-0.036,-34.1199,5.2145,38.6608,23.99,0.04,0.13,8.67,0.0,0.0,0.0,0.0,0,0.0,0.0,1,/data_0006-0.
624924488,1766652726567722,0,0,-0.0024,0.0005,0.9993,0.01,-0.0411,-0.0284,-34.1199,5.2145,38.6608,23.98,0.04,0.13,8.67,0.0,0.0,0.0,0.0,0,0.0,0.0,1,/data_0006-0.
624928488,1766652726571722,0,0,-0.0023,0.0002,0.9992,0.01,-0.0564,-0.0284,-34.1199,5.2145,38.6608,23.98,0.04,0.13,8.67,0.0,0.0,0.0,0.0,0,0.0,0.0,1,/data_0006-0.
624984488,1766652726627722,0,0,-0.0022,0.001,0.9999,0.01,-0.0335,-0.0131,-34.1199,5.2145,38.6608,23.98,0.03,0.14,8.67,0.0,0.0,0.0,0.0,0,0.0,0.0,1,/data_0006-0.
624988488,1766652726631722,0,0,-0.0024,0.0008,0.9996,0.0176,-0.0411,-0.0131,-34.1199,5.2145,38.6608,23.98,0.03,0.14,8.67,0.0,0.0,0.0,0.0,0,0.0,0.0,1,/data_0006-0.
624992488,1766652726635722,0,0,-0.0026,0.0006,0.9993,0.0253,-0.0411,-0.036,-34.1199,5.2145,38.6608,23.98,0.03,0.14,8.67,0.0,0.0,0.0,0.0,0,0.0,0.0,1,/data_0006-0.
624996488,1766652726639722,0,0,-0.0026,0.0005,0.999,0.0253,-0.0258,-0.0284,-34.1199,5.2145,38.6608,23.98,0.03,0.14,8.67,0.0,0.0,0.0,0.0,0,0.0,0.0,1,/data_0006-0.
625036234,1766652726679468,0,0,-0.0026,0.0007,0.9985,-0.0129,0.0276,-0.0208,-34.1199,5.2145,38.6608,23.98,0.03,0.14,8.67,0.0,0.0,0.0,0.0,0,0.0,0.0,1,/data_0006-0.
625040488,1766652726683722,0,0,-0.0027,0.0007,0.9986,-0.0053,0.0123,-0.0131,-34.1199,5.2145,38.6608,23.97,0.03,0.14,8.67,0.0,0.0,0.0,0.0,0,0.0,0.0,1,/data_0006-0.
625044488,1766652726687722,0,0,-0.0027,0.0009,0.999,-0.0205,0.0123,-0.0208,-34.1199,5.2145,38.6608,23.97,0.03,0.14,8.67,0.0,0.0,0.0,0.0,0,0.0,0.0,1,/data_0006-0.
625048488,1766652726691722,0,0,-0.0028,0.0009,0.9987,-0.0205,0.0047,-0.036,-34.1199,5.2145,38.6608,23.97,0.04,0.14,8.67,0.0,0.0,0.0,0.0,0,0.0,0.0,1,/data_0006-0.
625104488,1766652726747722,0,0,-0.0023,0.0008,1.0002,0.0024,-0.003,0.0403,-33.0481,5.2145,39.0076,23.98,0.04,0.15,8.67,0.0,0.0,0.0,0.0,0,0.0,0.0,1,/data_0006-0.
625108488,1766652726751722,0,0,-0.0025,0.0009,1.0,0.0176,-0.0106,0.0327,-33.0481,5.2145,39.0076,23.97,0.05,0.15,8.68,0.0,0.0,0.0,0.0,0,0.0,0.0,1,/data_0006-0.
625112488,1766652726755722,0,0,-0.0025,0.0009,0.9998,0.0253,-0.0182,0.0403,-33.0481,5.2145,39.0076,23.98,0.05,0.15,8.68,0.0,0.0,0.0,0.0,0,0.0,0.0,1,/data_0006-0.
625116488,1766652726759722,0,0,-0.0026,0.0007,1.0,0.0405,-0.0258,0.0327,-33.0481,5.2145,39.0076,23.98,0.05,0.15,8.68,0.0,0.0,0.0,0.0,0,0.0,0.0,1,/data_0006-0.
625156234,1766652726799468,0,0,-0.0026,0.001,1.0,0.0253,-0.0411,0.0403,-33.0481,5.2145,39.0076,23.97,0.06,0.15,8.69,0.0,0.0,0.0,0.0,0,0.0,0.0,1,/data_0006-0.
625160234,1766652726803468,0,0,-0.0024,0.0008,1.0001,0.01,-0.0335,0.025,-33.0481,5.2145,39.0076,23.97,0.06,0.15,8.7,0.0,0.0,0.0,0.0,0,0.0,0.0,1,/data_0006-0.
625164234,1766652726807468,0,0,-0.0023,0.001,1.0001,0.0176,-0.0335,0.0174,-33.0481,5.2145,39.0076,23.98,0.07,0.14,8.7,0.0,0.0,0.0,0.0,0,0.0,0.0,1,/data_0006-0.
625168234,1766652726811468,0,0,-0.0023,0.001,0.9999,0.01,-0.0182,-0.0055,-33.0481,5.2145,39.0076,23.98,0.07,0.14,8.7,0.0,0.0,0.0,0.0,0,0.0,0.0,1,/data_0006-0.
625220488,1766652726863722,0,0,-0.0022,-0.0003,0.9999,0.0024,-0.0258,-0.0208,-34.8344,4.8549,40.0478,23.98,0.07,0.14,8.71,0.0,0.0,0.0,0.0,0,0.0,0.0,1,/data_0006-0.
625224488,1766652726867722,0,0,-0.0021,-0.0001,0.9998,0.0024,-0.0258,-0.0131,-34.8344,4.8549,40.0478,23.98,0.06,0.14,8.71,0.0,0.0,0.0,0.0,0,0.0,0.0,1,/data_0006-0.
625228488,1766652726871722,0,0,-0.0019,-0.0004,1.0002,0.01,-0.0182,0.0021,-34.8344,4.8549,40.0478,23.98,0.05,0.14,8.7,0.0,0.0,0.0,0.0,0,0.0,0.0,1,/data_0006-0.
625276488,1766652726919722,0,0,-0.0018,-0.0,0.9999,0.0024,-0.0411,0.0098,-34.8344,4.8549,40.0478,23.98,-0.02,0.14,8.65,0.0,0.0,0.0,0.0,0,0.0,0.0,1,/data_0006-0.
625280488,1766652726923722,0,0,-0.0021,-0.0001,0.9993,-0.0053,-0.0335,0.025,-34.8344,4.8549,40.0478,23.98,-0.02,0.14,8.64,0.0,0.0,0.0,0.0,0,0.0,0.0,1,/data_0006-0.
625284488,1766652726927722,0,0,-0.0023,-0.0,0.9995,-0.0053,-0.0411,0.025,-34.8344,4.8549,40.0478,23.98,-0.03,0.14,8.64,0.0,0.0,0.0,0.0,0,0.0,0.0,1,/data_0006-0.
625288488,1766652726931722,0,0,-0.002,-0.0002,0.9996,-0.0053,-0.0411,0.025,-34.8344,4.8549,40.0478,23.98,-0.03,0.14,8.64,0.0,0.0,0.0,0.0,0,0.0,0.0,1,/data_0006-0.
625320488,1766652726963722,0,0,-0.0021,-0.0003,1.0004,-0.0205,-0.0258,0.0555,-34.8344,4.8549,40.0478,23.98,-0.06,0.14,8.61,0.0,0.0,0.0,0.0,0,0.0,0.0,1,/data_0006-0.
625324488,1766652726967722,0,0,-0.002,-0.0,1.0,-0.0282,-0.0182,0.0403,-34.8344,4.8549,40.0478,23.98,-0.06,0.14,8.6,0.0,0.0,0.0,0.0,0,0.0,0.0,1,/data_0006-0.
625328488,1766652726971722,0,0,-0.0021,-0.0001,0.9996,-0.0205,-0.0182,0.0403,-34.8344,4.8549,40.0478,23.98,-0.07,0.14,8.6,0.0,0.0,0.0,0.0,0,0.0,0.0,1,/data_0006-0.
625332488,1766652726975722,0,0,-0.002,0.0002,0.9996,-0.0129,-0.0182,0.0479,-34.8344,4.8549,40.0478,23.98,-0.07,0.14,8.6,0.0,0.0,0.0,0.0,0,0.0,0.0,1,/data_0006-0.
625384488,1766652727027722,0,0,-0.0021,0.0002,0.9997,0.0329,-0.0106,0.0403,-34.8344,4.8549,40.0478,23.98,-0.08,0.14,8.55,0.0,0.0,0.0,0.0,0,0.0,0.0,1,/data_0006-0.
625388488,1766652727031722,0,0,-0.0023,0.0003,0.9995,0.0329,-0.0106,0.0327,-34.8344,4.8549,40.0478,23.99,-0.09,0.14,8.55,0.0,0.0,0.0,0.0,0,0.0,0.0,1,/data_0006-0.
625392488,1766652727035722,0,0,-0.0021,0.0004,0.9997,0.0405,-0.0182,0.025,-34.8344,4.8549,40.0478,23.99,-0.09,0.14,8.55,0.0,0.0,0.0,0.0,0,0.0,0.0,1,/data_0006-0.
625396488,1766652727039722,0,0,-0.002,0.0003,0.9995,0.0329,-0.0258,0.0174,-34.8344,4.8549,40.0478,23.99,-0.09,0.14,8.54,0.0,0.0,0.0,0.0,0,0.0,0.0,1,/data_0006-0.
625452488,1766652727095722,0,0,-0.002,0.0007,1.0006,0.0253,-0.0335,0.0174,-34.8344,4.8549,40.0478,23.98,-0.08,0.14,8.5,0.0,0.0,0.0,0.0,0,0.0,0.0,1,/data_0006-0.
625456489,1766652727099723,0,0,-0.002,0.0007,1.0004,0.0176,-0.0411,0.0021,-34.8344,4.8549,40.0478,23.98,-0.08,0.14,8.5,0.0,0.0,0.0,0.0,0,0.0,0.0,1,/data_0006-0.
625460488,1766652727103722,0,0,-0.0018,0.0008,0.9999,0.0253,-0.0335,0.0098,-34.8344,4.8549,40.0478,23.98,-0.08,0.14,8.5,0.0,0.0,0.0,0.0,0,0.0,0.0,1,/data_0006-0.
625464488,1766652727107722,0,0,-0.0018,0.0007,0.9995,0.0253,-0.0258,-0.0208,-34.8344,4.8549,40.0478,23.98,-0.08,0.14,8.49,0.0,0.0,0.0,0.0,0,0.0,0.0,1,/data_0006-0.
625504488,1766652727147722,0,0,-0.0028,0.0003,1.0003,0.0024,-0.0182,-0.0208,-34.6558,5.0347,38.4875,23.98,-0.06,0.14,8.48,0.0,0.0,0.0,0.0,0,0.0,0.0,1,/data_0006-0.
625508488,1766652727151722,0,0,-0.0028,0.0003,1.0007,0.0176,-0.0182,-0.0208,-34.6558,5.0347,38.4875,23.98,-0.06,0.14,8.48,0.0,0.0,0.0,0.0,0,0.0,0.0,1,/data_0006-0.
625512488,1766652727155722,0,0,-0.0027,0.0002,1.0006,0.01,-0.0335,-0.0208,-34.6558,5.0347,38.4875,23.98,-0.06,0.14,8.48,0.0,0.0,0.0,0.0,0,0.0,0.0,1,/data_0006-0.
625516488,1766652727159722,0,0,-0.0024,0.0003,1.0006,0.01,-0.0411,-0.0208,-34.6558,5.0347,38.4875,23.99,-0.06,0.14,8.48,0.0,0.0,0.0,0.0,0,0.0,0.0,1,/data_0006-0.
625568488,1766652727211722,0,0,-0.0029,0.0005,1.0,0.0253,-0.0106,0.0327,-34.6558,5.0347,38.4875,23.99,-0.04,0.14,8.47,0.0,0.0,0.0,0.0,0,0.0,0.0,1,/data_0006-0.
625572488,1766652727215722,0,0,-0.0028,0.0003,0.9994,0.0481,-0.0182,0.0174,-34.6558,5.0347,38.4875,23.99,-0.04,0.14,8.47,0.0,0.0,0.0,0.0,0,0.0,0.0,1,/data_0006-0.
625576488,1766652727219722,0,0,-0.0027,0.0002,0.9993,0.0405,-0.0182,0.0021,-34.6558,5.0347,38.4875,23.99,-0.04,0.14,8.47,0.0,0.0,0.0,0.0,0,0.0,0.0,1,/data_0006-0.
625580488,1766652727223722,0,0,-0.0026,0.0001,0.999,0.0481,-0.003,0.0021,-34.6558,5.0347,38.4875,23.99,-0.04,0.14,8.47,0.0,0.0,0.0,0.0,0,0.0,0.0,1,/data_0006-0.
625624488,1766652727267722,0,0,-0.0021,0.0003,1.0003,0.0558,-0.0335,-0.0284,-33.9413,5.3943,39.5277,23.98,0.0,0.14,8.49,0.0,0.0,0.0,0.0,0,0.0,0.0,1,/data_0006-0.
625628488,1766652727271722,0,0,-0.0021,0.0004,1.0005,0.0481,-0.0182,-0.0055,-33.9413,5.3943,39.5277,23.98,0.0,0.14,8.49,0.0,0.0,0.0,0.0,0,0.0,0.0,1,/data_0006-0.
625632488,1766652727275722,0,0,-0.002,0.0006,1.0003,0.0481,-0.0106,0.0021,-33.9413,5.3943,39.5277,23.98,0.01,0.14,8.5,0.0,0.0,0.0,0.0,0,0.0,0.0,1,/data_0006-0.
625636488,1766652727279722,0,0,-0.0018,0.0009,1.0001,0.0558,-0.0106,0.0021,-33.9413,5.3943,39.5277,23.98,0.01,0.14,8.5,0.0,0.0,0.0,0.0,0,0.0,0.0,1,/data_0006-0.
625688488,1766652727331722,0,0,-0.0029,-0.0003,0.9993,-0.0205,-0.0335,-0.0131,-33.9413,5.3943,39.5277,23.98,0.05,0.13,8.54,0.0,0.0,0.0,0.0,0,0.0,0.0,1,/data_0006-0.
625692488,1766652727335722,0,0,-0.0029,-0.0003,0.9989,-0.0129,-0.0411,-0.0131,-33.9413,5.3943,39.5277,23.99,0.05,0.13,8.54,0.0,0.0,0.0,0.0,0,0.0,0.0,1,/data_0006-0.
625696488,1766652727339722,0,0,-0.0027,-0.0003,0.9991,-0.0129,-0.0487,-0.0208,-33.9413,5.3943,39.5277,23.98,0.05,0.13,8.55,0.0,0.0,0.0,0.0,0,0.0,0.0,1,/data_0006-0.
625700488,1766652727343722,0,0,-0.0024,-0.0001,0.999,-0.0205,-0.0411,-0.0131,-33.9413,5.3943,39.5277,23.98,0.05,0.13,8.55,0.0,0.0,0.0,0.0,0,0.0,0.0,1,/data_0006-0.
625744488,1766652727387722,0,0,-0.0026,-0.0002,1.0004,0.01,-0.0411,0.0021,-33.9413,5.3943,38.4875,23.98,0.06,0.13,8.58,0.0,0.0,0.0,0.0,0,0.0,0.0,1,/data_0006-0.
625748234,1766652727391468,0,0,-0.0024,-0.0004,1.0002,0.0024,-0.0335,0.0174,-33.9413,5.3943,38.4875,23.98,0.06,0.13,8.58,0.0,0.0,0.0,0.0,0,0.0,0.0,1,/data_0006-0.
625752235,1766652727395469,0,0,-0.0023,-0.0004,1.0,0.01,-0.0182,0.0098,-33.9413,5.3943,38.4875,23.98,0.06,0.13,8.58,0.0,0.0,0.0,0.0,0,0.0,0.0,1,/data_0006-0.
625756234,1766652727399468,0,0,-0.0024,-0.0004,1.0,0.01,-0.0182,0.0021,-33.9413,5.3943,38.4875,23.99,0.06,0.13,8.59,0.0,0.0,0.0,0.0,0,0.0,0.0,1,/data_0006-0.
625808488,1766652727451722,0,0,-0.0024,-0.0003,0.9998,0.0253,-0.0335,0.0021,-33.9413,5.3943,38.4875,23.98,0.06,0.13,8.62,0.0,0.0,0.0,0.0,0,0.0,0.0,1,/data_0006-0.
625812488,1766652727455722,0,0,-0.0024,-0.0003,0.9995,0.0024,-0.0106,0.0098,-33.9413,5.3943,38.4875,23.99,0.06,0.13,8.62,0.0,0.0,0.0,0.0,0,0.0,0.0,1,/data_0006-0.
625816488,1766652727459722,0,0,-0.0023,-0.0003,0.9996,0.01,-0.003,0.0021,-33.9413,5.3943,38.4875,23.99,0.06,0.13,8.62,0.0,0.0,0.0,0.0,0,0.0,0.0,1,/data_0006-0.
625820488,1766652727463722,0,0,-0.0022,-0.0005,0.9996,0.01,-0.003,0.0098,-33.9413,5.3943,38.4875,23.99,0.06,0.13,8.62,0.0,0.0,0.0,0.0,0,0.0,0.0,1,/data_0006-0.
625864488,1766652727507722,0,0,-0.0028,-0.0003,0.9992,0.0253,-0.0335,-0.0131,-35.0131,4.675,38.1407,23.98,0.03,0.13,8.61,0.0,0.0,0.0,0.0,0,0.0,0.0,1,/data_0006-0.
625868488,1766652727511722,0,0,-0.0025,-0.0003,0.9994,0.0176,-0.0487,-0.0131,-35.0131,4.675,38.1407,23.99,0.02,0.13,8.6,0.0,0.0,0.0,0.0,0,0.0,0.0,1,/data_0006-0.
625872488,1766652727515722,0,0,-0.0026,-0.0003,0.9994,0.0176,-0.0564,0.0021,-35.0131,4.675,38.1407,23.99,0.01,0.13,8.6,0.0,0.0,0.0,0.0,0,0.0,0.0,1,/data_0006-0.
625876488,1766652727519722,0,0,-0.0027,-0.0001,0.9994,0.0176,-0.0564,0.0021,-35.0131,4.675,38.1407,23.99,0.01,0.14,8.59,0.0,0.0,0.0,0.0,0,0.0,0.0,1,/data_0006-0.
625928488,1766652727571722,0,0,-0.0026,-0.0004,0.9994,0.0558,-0.0411,-0.0055,-35.0131,4.675,38.1407,23.98,-0.07,0.15,8.52,0.0,0.0,0.0,0.0,0,0.0,0.0,1,/data_0006-0.
625932488,1766652727575722,0,0,-0.0027,-0.0008,0.9993,0.0405,-0.0411,-0.0055,-35.0131,4.675,38.1407,23.98,-0.07,0.15,8.51,0.0,0.0,0.0,0.0,0,0.0,0.0,1,/data_0006-0.
625936488,1766652727579722,0,0,-0.0026,-0.0005,0.9995,0.0405,-0.0411,-0.0055,-35.0131,4.675,38.1407,23.98,-0.07,0.15,8.51,0.0,0.0,0.0,0.0,0,0.0,0.0,1,/data_0006-0.
625940488,1766652727583722,0,0,-0.0024,-0.0008,0.9996,0.0405,-0.0564,0.0021,-35.0131,4.675,38.1407,23.99,-0.08,0.15,8.5,0.0,0.0,0.0,0.0,0,0.0,0.0,1,/data_0006-0.
625984488,1766652727627722,0,0,-0.0023,0.0001,0.9992,0.01,-0.0335,0.0021,-34.4772,4.8549,38.6608,23.98,-0.1,0.15,8.46,0.0,0.0,0.0,0.0,0,0.0,0.0,1,/data_0006-0.
625988488,1766652727631722,0,0,-0.002,0.0002,0.9994,0.0024,-0.0487,-0.036,-34.4772,4.8549,38.6608,23.98,-0.1,0.15,8.46,0.0,0.0,0.0,0.0,0,0.0,0.0,1,/data_0006-0.
625992488,1766652727635722,0,0,-0.0019,0.0003,0.9995,0.01,-0.0411,-0.036,-34.4772,4.8549,38.6608,23.98,-0.1,0.15,8.46,0.0,0.0,0.0,0.0,0,0.0,0.0,1,/data_0006-0.
625996488,1766652727639722,0,0,-0.0018,0.0005,0.9994,0.01,-0.0411,-0.036,-34.4772,4.8549,38.6608,23.98,-0.1,0.15,8.45,0.0,0.0,0.0,0.0,0,0.0,0.0,1,/data_0006-0.
626048488,1766652727691722,0,0,-0.0022,0.0003,0.9994,0.01,-0.003,-0.0055,-34.4772,4.8549,38.6608,23.99,-0.09,0.14,8.43,0.0,0.0,0.0,0.0,0,0.0,0.0,1,/data_0006-0.
626052242,1766652727695476,0,0,-0.0021,0.0003,0.9994,0.0176,-0.0182,-0.0131,-34.4772,4.8549,38.6608,23.99,-0.08,0.14,8.43,0.0,0.0,0.0,0.0,0,0.0,0.0,1,/data_0006-0.
626056234,1766652727699468,0,0,-0.0022,0.0001,0.9994,0.0176,-0.0106,-0.0131,-34.4772,4.8549,38.6608,23.99,-0.08,0.14,8.43,0.0,0.0,0.0,0.0,0,0.0,0.0,1,/data_0006-0.
626060234,1766652727703468,0,0,-0.0021,0.0002,0.9995,0.0024,-0.0258,-0.0131,-34.4772,4.8549,38.6608,23.99,-0.08,0.14,8.42,0.0,0.0,0.0,0.0,0,0.0,0.0,1,/data_0006-0.
626112234,1766652727755468,0,0,-0.0025,0.0009,1.0012,0.0024,-0.0106,-0.0208,-33.584,4.675,39.1809,23.99,-0.08,0.14,8.4,0.0,0.0,0.0,0.0,0,0.0,0.0,1,/data_0006-0.
626116234,1766652727759468,0,0,-0.0026,0.0009,1.0012,0.0176,-0.0258,-0.0055,-33.584,4.675,39.1809,23.99,-0.08,0.14,8.4,0.0,0.0,0.0,0.0,0,0.0,0.0,1,/data_0006-0.
626120234,1766652727763468,0,0,-0.0025,0.001,1.0009,0.0024,-0.0258,-0.0055,-33.584,4.675,39.1809,23.99,-0.08,0.14,8.39,0.0,0.0,0.0,0.0,0,0.0,0.0,1,/data_0006-0.
626124488,1766652727767722,0,0,-0.0026,0.0011,1.0004,0.0024,-0.0106,-0.0131,-33.584,4.675,39.1809,23.99,-0.08,0.14,8.39,0.0,0.0,0.0,0.0,0,0.0,0.0,1,/data_0006-0.
626169488,1766652727812722,0,0,-0.0029,0.0002,1.0006,0.01,-0.003,-0.0131,-33.584,4.675,39.1809,23.98,-0.07,0.15,8.37,0.0,0.0,0.0,0.0,0,0.0,0.0,1,/data_0006-0.
626173488,1766652727816722,0,0,-0.0028,0.0003,1.0,0.01,0.0047,-0.0208,-33.584,4.675,39.1809,23.98,-0.07,0.15,8.36,0.0,0.0,0.0,0.0,0,0.0,0.0,1,/data_0006-0.
626177488,1766652727820722,0,0,-0.0028,0.0004,1.0001,0.01,0.0047,-0.036,-33.584,4.675,39.1809,23.98,-0.07,0.15,8.36,0.0,0.0,0.0,0.0,0,0.0,0.0,1,/data_0006-0.
626181488,1766652727824722,0,0,-0.0028,0.0002,1.0001,0.0176,-0.0106,-0.0436,-33.584,4.675,39.1809,23.98,-0.07,0.15,8.36,0.0,0.0,0.0,0.0,0,0.0,0.0,1,/data_0006-0.
626233488,1766652727876722,0,0,-0.0027,0.0002,0.9992,0.01,-0.0258,-0.0208,-34.1199,4.8549,37.2739,23.98,-0.07,0.16,8.34,0.0,0.0,0.0,0.0,0,0.0,0.0,1,/data_0006-0.
626237488,1766652727880722,0,0,-0.0026,0.0003,0.999,0.0024,-0.0182,-0.0131,-34.1199,4.8549,37.2739,23.98,-0.07,0.16,8.34,0.0,0.0,0.0,0.0,0,0.0,0.0,1,/data_0006-0.
626241488,1766652727884722,0,0,-0.0025,0.0003,0.9993,0.0024,-0.003,-0.0131,-34.1199,4.8549,37.2739,23.98,-0.07,0.16,8.34,0.0,0.0,0.0,0.0,0,0.0,0.0,1,/data_0006-0.
626245488,1766652727888722,0,0,-0.0024,0.0001,0.999,0.01,-0.0106,-0.0208,-34.1199,4.8549,37.2739,23.98,-0.07,0.16,8.33,0.0,0.0,0.0,0.0,0,0.0,0.0,1,/data_0006-0.
626289488,1766652727932722,0,0,-0.0021,-0.0001,1.0004,0.01,-0.0335,-0.0513,-34.1199,4.8549,37.2739,23.99,-0.06,0.15,8.32,0.0,0.0,0.0,0.0,0,0.0,0.0,1,/data_0006-0.
626293488,1766652727936722,0,0,-0.002,0.0001,1.0002,0.0253,-0.0335,-0.0436,-34.1199,4.8549,37.2739,23.99,-0.05,0.15,8.32,0.0,0.0,0.0,0.0,0,0.0,0.0,1,/data_0006-0.
626297488,1766652727940722,0,0,-0.0021,-0.0001,1.0,0.0329,-0.0335,-0.0436,-34.1199,4.8549,37.2739,23.99,-0.05,0.15,8.32,0.0,0.0,0.0,0.0,0,0.0,0.0,1,/data_0006-0.
626301488,1766652727944722,0,0,-0.0024,-0.0005,0.9997,0.0253,-0.0335,-0.0513,-34.1199,4.8549,37.2739,23.99,-0.05,0.15,8.32,0.0,0.0,0.0,0.0,0,0.0,0.0,1,/data_0006-0.
626353237,1766652727996471,0,0,-0.0024,-0.0002,0.9993,0.01,-0.0182,0.0021,-34.1199,4.8549,37.2739,23.99,-0.06,0.15,8.31,0.0,0.0,0.0,0.0,0,0.0,0.0,1,/data_0006-0.
626357234,1766652728000468,0,0,-0.0023,-0.0002,0.9996,-0.0053,-0.0106,0.0021,-34.1199,4.8549,37.2739,23.99,-0.06,0.15,8.31,0.0,0.0,0.0,0.0,0,0.0,0.0,1,/data_0006-0.
626361243,1766652728004477,0,0,-0.0023,0.0001,1.0001,-0.0053,-0.0106,-0.0131,-34.1199,4.8549,37.2739,23.98,-0.06,0.15,8.31,0.0,0.0,0.0,0.0,0,0.0,0.0,1,/data_0006-0.
626365488,1766652728008722,0,0,-0.0025,0.0002,1.0006,0.0024,-0.003,0.0098,-34.1199,4.8549,37.2739,23.98,-0.05,0.15,8.31,0.0,0.0,0.0,0.0,0,0.0,0.0,1,/data_0006-0.
626409235,1766652728052469,0,0,-0.0025,-0.0002,0.9994,0.01,0.0047,0.0021,-34.1199,4.8549,37.2739,23.99,-0.05,0.15,8.3,0.0,0.0,0.0,0.0,0,0.0,0.0,1,/data_0006-0.
626413234,1766652728056468,0,0,-0.0027,-0.0004,0.9992,0.01,-0.0106,0.0021,-34.1199,4.8549,37.2739,23.98,-0.05,0.15,8.3,0.0,0.0,0.0,0.0,0,0.0,0.0,1,/data_0006-0.
626417234,1766652728060468,0,0,-0.0026,-0.0004,0.9989,0.0176,-0.003,-0.0055,-34.1199,4.8549,37.2739,23.98,-0.05,0.15,8.3,0.0,0.0,0.0,0.0,0,0.0,0.0,1,/data_0006-0.
626421488,1766652728064722,0,0,-0.0028,0.0,0.9988,0.0024,0.0047,-0.0131,-34.1199,4.8549,37.2739,23.98,-0.05,0.15,8.3,0.0,0.0,0.0,0.0,0,0.0,0.0,1,/data_0006-0.
626473488,1766652728116722,0,0,-0.0033,-0.0003,0.9997,0.0405,0.0123,-0.0436,-34.1199,4.8549,37.2739,23.99,-0.04,0.16,8.29,0.0,0.0,0.0,0.0,0,0.0,0.0,1,/data_0006-0.
626477488,1766652728120722,0,0,-0.0032,-0.0003,0.9997,0.0329,0.0047,-0.0436,-33.2267,3.9558,38.1407,23.99,-0.05,0.16,8.28,0.0,0.0,0.0,0.0,0,0.0,0.0,1,/data_0006-0.
626481488,1766652728124722,0,0,-0.003,-0.0005,0.9997,0.0253,-0.0106,-0.0589,-33.2267,3.9558,38.1407,23.99,-0.06,0.16,8.27,0.0,0.0,0.0,0.0,0,0.0,0.0,1,/data_0006-0.
626485488,1766652728128722,0,0,-0.0028,-0.0002,0.9996,0.0329,-0.0106,-0.0665,-33.2267,3.9558,38.1407,23.99,-0.07,0.16,8.26,0.0,0.0,0.0,0.0,0,0.0,0.0,1,/data_0006-0.
626529488,1766652728172722,0,0,-0.0022,0.0,1.0,0.0024,-0.0335,-0.0589,-33.2267,3.9558,38.1407,23.98,-0.13,0.17,8.17,0.0,0.0,0.0,0.0,0,0.0,0.0,1,/data_0006-0.
626533488,1766652728176722,0,0,-0.0021,0.0001,1.0,-0.0205,-0.0182,-0.0742,-33.2267,3.9558,38.1407,23.98,-0.14,0.17,8.16,0.0,0.0,0.0,0.0,0,0.0,0.0,1,/data_0006-0.
626537488,1766652728180722,0,0,-0.002,0.0001,1.0006,-0.0358,-0.0182,-0.0665,-33.2267,3.9558,38.1407,23.98,-0.14,0.17,8.16,0.0,0.0,0.0,0.0,0,0.0,0.0,1,/data_0006-0.
626541488,1766652728184722,0,0,-0.0025,0.0001,1.0003,-0.0282,-0.0106,-0.0589,-33.2267,3.9558,38.1407,23.98,-0.14,0.17,8.15,0.0,0.0,0.0,0.0,0,0.0,0.0,1,/data_0006-0.
626593488,1766652728236722,0,0,-0.0029,-0.0003,0.9992,-0.0129,-0.0182,-0.0436,-33.2267,3.9558,38.1407,23.98,-0.19,0.18,8.06,0.0,0.0,0.0,0.0,0,0.0,0.0,1,/data_0006-0.
626597488,1766652728240722,0,0,-0.0031,-0.0004,0.9993,-0.0053,-0.0258,-0.0436,-33.2267,3.9558,38.1407,23.99,-0.19,0.18,8.05,0.0,0.0,0.0,0.0,0,0.0,0.0,1,/data_0006-0.
626601488,1766652728244722,0,0,-0.0029,-0.0004,0.9991,0.01,-0.0182,-0.0436,-32.8694,5.3943,38.1407,23.99,-0.19,0.18,8.06,0.0,0.0,0.0,0.0,0,0.0,0.0,1,/data_0006-0.
626605488,1766652728248722,0,0,-0.0026,-0.0002,0.999,0.0024,-0.0182,-0.0436,-32.8694,5.3943,38.1407,23.98,-0.17,0.18,8.06,0.0,0.0,0.0,0.0,0,0.0,0.0,1,/data_0006-0.
626657488,1766652728300722,0,0,-0.0024,0.0003,0.9998,-0.0205,-0.0487,-0.036,-32.8694,5.3943,38.1407,23.99,-0.01,0.15,8.17,0.0,0.0,0.0,0.0,0,0.0,0.0,1,/data_0006-0.
626661488,1766652728304722,0,0,-0.0029,0.0005,1.0001,-0.0358,-0.0411,-0.0284,-32.8694,5.3943,38.1407,23.99,-0.0,0.15,8.18,0.0,0.0,0.0,0.0,0,0.0,0.0,1,/data_0006-0.
626665488,1766652728308722,0,0,-0.0031,0.0005,0.9996,-0.0358,-0.0258,-0.0284,-32.8694,5.3943,38.1407,23.99,0.01,0.15,8.19,0.0,0.0,0.0,0.0,0,0.0,0.0,1,/data_0006-0.
626669488,1766652728312722,0,0,-0.0031,0.0004,0.9995,-0.0358,-0.0487,-0.0131,-32.8694,5.3943,38.1407,23.99,0.01,0.15,8.2,0.0,0.0,0.0,0.0,0,0.0,0.0,1,/data_0006-0.
626713234,1766652728356468,0,0,-0.0026,-0.0002,0.9996,0.0176,-0.0106,0.025,-32.8694,5.3943,38.1407,23.98,0.08,0.14,8.27,0.0,0.0,0.0,0.0,0,0.0,0.0,1,/data_0006-0.
626717488,1766652728360722,0,0,-0.0026,-0.0003,0.9991,-0.0053,-0.0182,-0.0055,-32.8694,5.3943,38.1407,23.99,0.08,0.14,8.27,0.0,0.0,0.0,0.0,0,0.0,0.0,1,/data_0006-0.
626721236,1766652728364470,0,0,-0.0026,-0.0001,0.9987,0.0024,-0.0258,-0.0131,-32.8694,5.3943,38.1407,23.98,0.09,0.14,8.28,0.0,0.0,0.0,0.0,0,0.0,0.0,1,/data_0006-0.
626725234,1766652728368468,0,0,-0.0026,-0.0003,0.9986,-0.0053,-0.0182,-0.0131,-32.8694,5.3943,38.1407,23.98,0.09,0.14,8.29,0.0,0.0,0.0,0.0,0,0.0,0.0,1,/data_0006-0.
626777488,1766652728420722,0,0,-0.0024,-0.0007,0.9991,0.0176,-0.0335,0.0174,-32.8694,5.3943,38.1407,23.99,0.13,0.12,8.36,0.0,0.0,0.0,0.0,0,0.0,0.0,1,/data_0006-0.
626781236,1766652728424470,0,0,-0.0024,-0.0004,0.9991,0.01,-0.0258,0.025,-32.8694,5.3943,38.1407,23.99,0.13,0.12,8.36,0.0,0.0,0.0,0.0,0,0.0,0.0,1,/data_0006-0.
626785234,1766652728428468,0,0,-0.0025,-0.0004,0.9986,0.01,-0.0258,0.0327,-32.8694,5.3943,38.1407,23.98,0.13,0.12,8.37,0.0,0.0,0.0,0.0,0,0.0,0.0,1,/data_0006-0.
626789488,1766652728432722,0,0,-0.0026,-0.0001,0.9989,0.0024,-0.0182,0.0174,-32.8694,5.3943,38.1407,23.98,0.13,0.12,8.38,0.0,0.0,0.0,0.0,0,0.0,0.0,1,/data_0006-0.
626833488,1766652728476722,0,0,-0.0029,0.0004,1.0003,0.0024,-0.0487,-0.0055,-32.8694,5.3943,38.1407,23.97,0.15,0.12,8.43,0.0,0.0,0.0,0.0,0,0.0,0.0,1,/data_0006-0.
626837488,1766652728480722,0,0,-0.0029,0.0005,1.0003,-0.0053,-0.0411,-0.0055,-32.8694,5.3943,38.1407,23.97,0.15,0.12,8.43,0.0,0.0,0.0,0.0,0,0.0,0.0,1,/data_0006-0.
626841488,1766652728484722,0,0,-0.0027,0.0008,1.0006,-0.0053,-0.0411,-0.0055,-32.8694,5.3943,38.1407,23.98,0.15,0.12,8.44,0.0,0.0,0.0,0.0,0,0.0,0.0,1,/data_0006-0.
626845488,1766652728488722,0,0,-0.0028,0.001,1.0006,0.0024,-0.0182,-0.0131,-32.8694,5.3943,38.1407,23.98,0.15,0.12,8.44,0.0,0.0,0.0,0.0,0,0.0,0.0,1,/data_0006-0.
626897488,1766652728540722,0,0,-0.0021,0.0005,0.9991,0.0024,-0.0182,0.025,-32.5122,5.0347,37.794,23.97,0.14,0.13,8.46,0.0,0.0,0.0,0.0,0,0.0,0.0,1,/data_0006-0.
626901488,1766652728544722,0,0,-0.0021,0.0005,0.999,0.0176,-0.0258,0.0403,-32.5122,5.0347,37.794,23.98,0.14,0.13,8.46,0.0,0.0,0.0,0.0,0,0.0,0.0,1,/data_0006-0.
626905488,1766652728548722,0,0,-0.002,0.0005,0.9989,0.01,-0.003,0.0327,-32.5122,5.0347,37.794,23.98,0.13,0.13,8.47,0.0,0.0,0.0,0.0,0,0.0,0.0,1,/data_0006-0.
626909488,1766652728552722,0,0,-0.002,0.0005,0.9996,0.0176,-0.0106,0.0327,-32.5122,5.0347,37.794,23.97,0.13,0.13,8.47,0.0,0.0,0.0,0.0,0,0.0,0.0,1,/data_0006-0.
626953488,1766652728596722,0,0,-0.0022,0.0002,0.9981,0.01,-0.0182,0.0021,-32.5122,5.0347,37.794,23.99,0.12,0.12,8.48,0.0,0.0,0.0,0.0,0,0.0,0.0,1,/data_0006-0.
626958487,1766652728601721,0,0,-0.0024,0.0005,0.9986,0.01,-0.0182,0.0174,-32.5122,5.0347,37.794,23.99,0.12,0.12,8.48,0.0,0.0,0.0,0.0,0,0.0,0.0,1,/data_0006-0.
626962488,1766652728605722,0,0,-0.0024,0.0003,0.999,0.0176,-0.0106,0.0174,-32.5122,5.0347,37.794,23.99,0.11,0.12,8.48,0.0,0.0,0.0,0.0,0,0.0,0.0,1,/data_0006-0.
626966488,1766652728609722,0,0,-0.0026,0.0001,0.9994,0.0176,-0.0106,0.0174,-32.5122,5.0347,37.794,23.98,0.11,0.12,8.49,0.0,0.0,0.0,0.0,0,0.0,0.0,1,/data_0006-0.
627018235,1766652728661469,0,0,-0.0028,-0.0001,0.9993,-0.0053,-0.0335,0.025,-33.9413,6.1135,38.8342,23.98,0.18,0.11,8.59,0.0,0.0,0.0,0.0,0,0.0,0.0,1,/data_0006-0.
627022488,1766652728665722,0,0,-0.0033,-0.0,0.9993,-0.0205,-0.0335,0.0098,-33.9413,6.1135,38.8342,23.98,0.18,0.11,8.6,0.0,0.0,0.0,0.0,0,0.0,0.0,1,/data_0006-0.
627026489,1766652728669723,0,0,-0.0031,-0.0001,0.9995,-0.0358,-0.0258,0.0098,-33.9413,6.1135,38.8342,23.98,0.19,0.11,8.61,0.0,0.0,0.0,0.0,0,0.0,0.0,1,/data_0006-0.
627030488,1766652728673722,0,0,-0.0029,-0.0003,0.9993,-0.0282,-0.0106,0.025,-33.9413,6.1135,38.8342,23.98,0.19,0.11,8.62,0.0,0.0,0.0,0.0,0,0.0,0.0,1,/data_0006-0.
627070234,1766652728713468,0,0,-0.0026,0.0007,0.9984,-0.0053,-0.0411,-0.0055,-33.9413,6.1135,38.8342,23.98,0.23,0.11,8.7,0.0,0.0,0.0,0.0,0,0.0,0.0,1,/data_0006-0.
627074236,1766652728717470,0,0,-0.0027,0.0008,0.9989,-0.0129,-0.0564,0.0098,-33.9413,6.1135,38.8342,23.98,0.23,0.11,8.71,0.0,0.0,0.0,0.0,0,0.0,0.0,1,/data_0006-0.
627078234,1766652728721468,0,0,-0.0029,0.0009,0.9997,0.0024,-0.0335,0.0021,-33.9413,6.1135,38.8342,23.98,0.24,0.11,8.72,0.0,0.0,0.0,0.0,0,0.0,0.0,1,/data_0006-0.
627082488,1766652728725722,0,0,-0.0027,0.0007,0.9995,-0.0053,-0.0182,0.0021,-33.9413,6.1135,38.8342,23.98,0.24,0.11,8.73,0.0,0.0,0.0,0.0,0,0.0,0.0,1,/data_0006-0.
627138488,1766652728781722,0,0,-0.0025,-0.0003,1.0012,0.01,-0.0258,-0.0055,-33.2267,3.5962,38.1407,23.99,0.03,0.14,8.6,0.0,0.0,0.0,0.0,0,0.0,0.0,1,/data_0006-0.
627142488,1766652728785722,0,0,-0.0027,-0.0003,1.0011,0.0176,-0.0182,0.0021,-33.2267,3.5962,38.1407,23.99,0.02,0.14,8.59,0.0,0.0,0.0,0.0,0,0.0,0.0,1,/data_0006-0.
627146488,1766652728789722,0,0,-0.0026,-0.0,1.001,-0.0053,-0.0182,0.0098,-33.2267,3.5962,38.1407,23.99,-0.0,0.14,8.57,0.0,0.0,0.0,0.0,0,0.0,0.0,1,/data_0006-0.
627150488,1766652728793722,0,0,-0.0026,-0.0001,1.0007,-0.0129,-0.0182,0.0021,-33.2267,3.5962,38.1407,23.99,-0.02,0.14,8.56,0.0,0.0,0.0,0.0,0,0.0,0.0,1,/data_0006-0.
627190488,1766652728833722,0,0,-0.0028,0.0006,1.0001,0.0024,-0.003,0.025,-33.2267,3.5962,38.1407,23.99,-0.15,0.16,8.42,0.0,0.0,0.0,0.0,0,0.0,0.0,1,/data_0006-0.
627194488,1766652728837722,0,0,-0.0029,0.0008,1.0002,0.01,0.0047,0.0403,-33.2267,3.5962,38.1407,23.99,-0.15,0.17,8.41,0.0,0.0,0.0,0.0,0,0.0,0.0,1,/data_0006-0.
627198488,1766652728841722,0,0,-0.0031,0.0008,1.0001,0.01,-0.0182,0.0403,-33.2267,3.5962,38.1407,23.99,-0.16,0.17,8.4,0.0,0.0,0.0,0.0,0,0.0,0.0,1,/data_0006-0.
627202488,1766652728845722,0,0,-0.0032,0.0008,1.0003,0.01,-0.0182,0.025,-33.2267,3.5962,38.1407,23.99,-0.17,0.17,8.38,0.0,0.0,0.0,0.0,0,0.0,0.0,1,/data_0006-0.
627254488,1766652728897722,0,0,-0.0023,0.0003,1.0005,0.0176,-0.003,0.0403,-33.7626,4.8549,39.3543,23.98,-0.17,0.17,8.32,0.0,0.0,0.0,0.0,0,0.0,0.0,1,/data_0006-0.
627258488,1766652728901722,0,0,-0.0025,0.0005,1.0003,0.01,-0.0106,0.0479,-33.7626,4.8549,39.3543,23.98,-0.16,0.17,8.32,0.0,0.0,0.0,0.0,0,0.0,0.0,1,/data_0006-0.
627262488,1766652728905722,0,0,-0.0024,0.0005,1.0004,-0.0053,-0.0182,0.0479,-33.7626,4.8549,39.3543,23.98,-0.15,0.17,8.32,0.0,0.0,0.0,0.0,0,0.0,0.0,1,/data_0006-0.
627266488,1766652728909722,0,0,-0.0026,0.0002,1.0006,-0.0205,-0.0258,0.0403,-33.7626,4.8549,39.3543,23.97,-0.15,0.17,8.32,0.0,0.0,0.0,0.0,0,0.0,0.0,1,/data_0006-0.
627310488,1766652728953722,0,0,-0.0026,-0.0,0.9998,0.0253,-0.0106,-0.0208,-33.7626,4.8549,39.3543,23.98,-0.1,0.16,8.32,0.0,0.0,0.0,0.0,0,0.0,0.0,1,/data_0006-0.
627314488,1766652728957722,0,0,-0.0023,-0.0001,1.0,0.0176,-0.0106,-0.0284,-33.7626,4.8549,39.3543,23.98,-0.1,0.16,8.32,0.0,0.0,0.0,0.0,0,0.0,0.0,1,/data_0006-0.
627318488,1766652728961722,0,0,-0.0024,-0.0001,0.9996,0.0329,0.0047,-0.0208,-33.7626,4.8549,39.3543,23.98,-0.09,0.16,8.32,0.0,0.0,0.0,0.0,0,0.0,0.0,1,/data_0006-0.
627322488,1766652728965722,0,0,-0.0022,0.0002,0.9994,0.01,-0.003,-0.0284,-33.7626,4.8549,39.3543,23.98,-0.09,0.16,8.32,0.0,0.0,0.0,0.0,0,0.0,0.0,1,/data_0006-0.
627374238,1766652729017472,0,0,-0.0025,0.0002,1.0005,0.0176,-0.0182,-0.0284,-33.9413,6.8328,39.1809,23.99,0.05,0.14,8.43,0.0,0.0,0.0,0.0,0,0.0,0.0,1,/data_0006-0.
627378234,1766652729021468,0,0,-0.0027,0.0001,1.001,0.0253,-0.0258,-0.0513,-33.9413,6.8328,39.1809,23.98,0.07,0.13,8.45,0.0,0.0,0.0,0.0,0,0.0,0.0,1,/data_0006-0.
627382488,1766652729025722,0,0,-0.0032,0.0001,1.0018,0.0253,-0.0258,-0.0589,-33.9413,6.8328,39.1809,23.99,0.08,0.13,8.46,0.0,0.0,0.0,0.0,0,0.0,0.0,1,/data_0006-0.
627386488,1766652729029722,0,0,-0.0033,0.0001,1.0019,0.01,-0.0106,-0.0589,-33.9413,6.8328,39.1809,23.99,0.1,0.13,8.48,0.0,0.0,0.0,0.0,0,0.0,0.0,1,/data_0006-0.
627442488,1766652729085722,0,0,-0.0029,-0.0002,1.0,-0.0129,-0.0411,-0.0284,-33.9413,6.8328,39.1809,23.98,0.27,0.1,8.71,0.0,0.0,0.0,0.0,0,0.0,0.0,1,/data_0006-0.
627446488,1766652729089722,0,0,-0.0026,-0.0004,1.0,0.0024,-0.0487,-0.0284,-33.9413,6.8328,39.1809,23.98,0.28,0.1,8.73,0.0,0.0,0.0,0.0,0,0.0,0.0,1,/data_0006-0.
627450488,1766652729093722,0,0,-0.0027,-0.0004,1.0,-0.0053,-0.0564,-0.0284,-33.9413,6.8328,39.1809,23.98,0.29,0.1,8.74,0.0,0.0,0.0,0.0,0,0.0,0.0,1,/data_0006-0.
627454488,1766652729097722,0,0,-0.0023,-0.0004,0.9998,0.0024,-0.0564,-0.0284,-33.9413,6.8328,39.1809,23.98,0.3,0.1,8.76,0.0,0.0,0.0,0.0,0,0.0,0.0,1,/data_0006-0.
627494488,1766652729137722,0,0,-0.0026,-0.0008,1.0006,-0.0205,-0.0487,-0.0284,-34.1199,4.1356,37.9674,23.98,0.23,0.11,8.78,0.0,0.0,0.0,0.0,0,0.0,0.0,1,/data_0006-0.
627498488,1766652729141722,0,0,-0.0025,-0.0004,1.0008,-0.0129,-0.0487,-0.0436,-34.1199,4.1356,37.9674,23.99,0.21,0.11,8.76,0.0,0.0,0.0,0.0,0,0.0,0.0,1,/data_0006-0.
627502488,1766652729145722,0,0,-0.0024,-0.0005,1.0012,-0.0205,-0.0487,-0.0436,-34.1199,4.1356,37.9674,23.99,0.19,0.11,8.75,0.0,0.0,0.0,0.0,0,0.0,0.0,1,/data_0006-0.
627506488,1766652729149722,0,0,-0.0024,-0.0006,1.0015,-0.0282,-0.0487,-0.0436,-34.1199,4.1356,37.9674,23.99,0.17,0.12,8.74,0.0,0.0,0.0,0.0,0,0.0,0.0,1,/data_0006-0.
627562488,1766652729205722,0,0,-0.0026,-0.0,0.9998,-0.0205,-0.003,-0.0513,-34.1199,4.1356,37.9674,23.98,-0.04,0.14,8.58,0.0,0.0,0.0,0.0,0,0.0,0.0,1,/data_0006-0.
627566488,1766652729209722,0,0,-0.0027,0.0,0.9998,-0.0129,-0.0106,-0.036,-34.1199,4.1356,37.9674,23.97,-0.05,0.14,8.57,0.0,0.0,0.0,0.0,0,0.0,0.0,1,/data_0006-0.
627570488,1766652729213722,0,0,-0.0031,0.0002,1.0002,0.0024,-0.0106,-0.0284,-34.1199,4.1356,37.9674,23.97,-0.06,0.14,8.56,0.0,0.0,0.0,0.0,0,0.0,0.0,1,/data_0006-0.
627574488,1766652729217722,0,0,-0.0033,0.0003,1.0,0.0024,-0.003,-0.0284,-34.1199,4.1356,37.9674,23.97,-0.07,0.14,8.55,0.0,0.0,0.0,0.0,0,0.0,0.0,1,/data_0006-0.
627615488,1766652729258722,0,0,-0.0025,0.0003,0.9997,0.0024,-0.003,-0.0055,-34.4772,3.776,38.6608,23.98,-0.15,0.17,8.44,0.0,0.0,0.0,0.0,0,0.0,0.0,1,/data_0006-0.
627619488,1766652729262722,0,0,-0.0026,0.0002,1.0,-0.0053,-0.003,-0.0055,-34.4772,3.776,38.6608,23.98,-0.16,0.17,8.43,0.0,0.0,0.0,0.0,0,0.0,0.0,1,/data_0006-0.
627623488,1766652729266722,0,0,-0.0025,0.0001,1.0002,0.0024,-0.0106,0.0021,-34.4772,3.776,38.6608,23.98,-0.17,0.17,8.42,0.0,0.0,0.0,0.0,0,0.0,0.0,1,/data_0006-0.
627627488,1766652729270722,0,0,-0.0024,0.0002,1.0001,-0.0129,0.0123,0.0098,-34.4772,3.776,38.6608,23.98,-0.18,0.17,8.41,0.0,0.0,0.0,0.0,0,0.0,0.0,1,/data_0006-0.
627679488,1766652729322722,0,0,-0.0027,0.0003,0.9996,-0.0129,0.0123,0.0098,-34.4772,3.776,38.6608,23.98,-0.25,0.18,8.26,0.0,0.0,0.0,0.0,0,0.0,0.0,1,/data_0006-0.
627683488,1766652729326722,0,0,-0.0023,0.0,0.9999,-0.0129,-0.003,-0.0055,-34.4772,3.776,38.6608,23.98,-0.26,0.19,8.25,0.0,0.0,0.0,0.0,0,0.0,0.0,1,/data_0006-0.
627687488,1766652729330722,0,0,-0.0025,0.0003,0.9995,-0.0129,-0.0182,-0.0055,-34.4772,3.776,38.6608,23.98,-0.26,0.19,8.24,0.0,0.0,0.0,0.0,0,0.0,0.0,1,/data_0006-0.
627691488,1766652729334722,0,0,-0.0024,0.0004,0.9995,-0.0129,-0.0335,0.0021,-34.4772,3.776,38.6608,23.97,-0.26,0.19,8.23,0.0,0.0,0.0,0.0,0,0.0,0.0,1,/data_0006-0.
627735235,1766652729378469,0,0,-0.003,0.0002,0.9998,0.0024,-0.0487,-0.0208,-34.4772,3.776,38.6608,23.97,-0.3,0.19,8.12,0.0,0.0,0.0,0.0,0,0.0,0.0,1,/data_0006-0.
627739234,1766652729382468,0,0,-0.003,0.0003,0.9995,0.0024,-0.064,0.0098,-34.4772,3.776,38.6608,23.97,-0.3,0.19,8.11,0.0,0.0,0.0,0.0,0,0.0,0.0,1,/data_0006-0.
627743488,1766652729386722,0,0,-0.003,0.0,1.0,0.0176,-0.0564,0.0021,-34.4772,3.776,38.6608,23.97,-0.3,0.19,8.1,0.0,0.0,0.0,0.0,0,0.0,0.0,1,/data_0006-0.
627747487,1766652729390721,0,0,-0.0031,-0.0002,0.9998,0.0176,-0.0564,-0.0131,-34.4772,3.776,38.6608,23.97,-0.3,0.19,8.09,0.0,0.0,0.0,0.0,0,0.0,0.0,1,/data_0006-0.
627799488,1766652729442722,0,0,-0.0027,0.001,0.999,0.0176,-0.0411,-0.036,-34.4772,3.776,38.6608,23.97,-0.31,0.2,7.98,0.0,0.0,0.0,0.0,0,0.0,0.0,1,/data_0006-0.
627803488,1766652729446722,0,0,-0.0027,0.0008,0.9991,0.0176,-0.0258,-0.0131,-34.4772,3.776,38.6608,23.98,-0.31,0.2,7.97,0.0,0.0,0.0,0.0,0,0.0,0.0,1,/data_0006-0.
627807488,1766652729450722,0,0,-0.003,0.0006,0.9992,0.0253,-0.0335,-0.0284,-34.4772,3.776,38.6608,23.98,-0.31,0.2,7.96,0.0,0.0,0.0,0.0,0,0.0,0.0,1,/data_0006-0.
627811488,1766652729454722,0,0,-0.0032,0.0008,0.9995,0.0176,-0.0335,-0.036,-34.4772,3.776,38.6608,23.98,-0.31,0.2,7.95,0.0,0.0,0.0,0.0,0,0.0,0.0,1,/data_0006-0.
627855488,1766652729498722,0,0,-0.0031,0.0001,0.9998,0.0481,-0.0335,-0.0055,-34.4772,4.8549,38.6608,23.98,-0.29,0.2,7.87,0.0,0.0,0.0,0.0,0,0.0,0.0,1,/data_0006-0.
627859488,1766652729502722,0,0,-0.0032,0.0004,1.0,0.0329,-0.0411,0.0098,-34.4772,4.8549,38.6608,23.98,-0.28,0.2,7.87,0.0,0.0,0.0,0.0,0,0.0,0.0,1,/data_0006-0.
627863488,1766652729506722,0,0,-0.0033,0.0003,1.0001,0.0329,-0.0335,-0.0055,-34.4772,4.8549,38.6608,23.98,-0.27,0.2,7.88,0.0,0.0,0.0,0.0,0,0.0,0.0,1,/data_0006-0.
627867488,1766652729510722,0,0,-0.003,0.0003,1.0001,0.0405,-0.0258,0.0021,-34.4772,4.8549,38.6608,23.98,-0.26,0.2,7.88,0.0,0.0,0.0,0.0,0,0.0,0.0,1,/data_0006-0.
627919488,1766652729562722,0,0,-0.0024,-0.0001,0.9995,0.0253,-0.0411,0.0098,-34.4772,4.8549,38.6608,23.99,-0.15,0.18,7.91,0.0,0.0,0.0,0.0,0,0.0,0.0,1,/data_0006-0.
627923488,1766652729566722,0,0,-0.0024,-0.0,0.9992,0.0405,-0.0487,0.0174,-34.4772,4.8549,38.6608,23.99,-0.14,0.18,7.91,0.0,0.0,0.0,0.0,0,0.0,0.0,1,/data_0006-0.
627927488,1766652729570722,0,0,-0.0026,0.0,0.9992,0.0329,-0.0335,0.0098,-34.4772,4.8549,38.6608,23.99,-0.14,0.18,7.91,0.0,0.0,0.0,0.0,0,0.0,0.0,1,/data_0006-0.
627931488,1766652729574722,0,0,-0.0026,-0.0003,0.9992,0.0329,-0.0182,0.025,-34.4772,4.8549,38.6608,23.98,-0.13,0.17,7.91,0.0,0.0,0.0,0.0,0,0.0,0.0,1,/data_0006-0.
627983488,1766652729626722,0,0,-0.0028,-0.0001,0.9994,0.0176,-0.0258,0.0403,-34.8344,5.9337,38.3141,23.98,-0.06,0.16,7.94,0.0,0.0,0.0,0.0,0,0.0,0.0,1,/data_0006-0.
627987488,1766652729630722,0,0,-0.0026,-0.0003,0.9999,0.0176,-0.0335,0.0403,-34.8344,5.9337,38.3141,23.98,-0.05,0.16,7.96,0.0,0.0,0.0,0.0,0,0.0,0.0,1,/data_0006-0.
627991488,1766652729634722,0,0,-0.0027,-0.0,1.0002,0.0176,-0.0182,0.0403,-34.8344,5.9337,38.3141,23.98,-0.03,0.16,7.97,0.0,0.0,0.0,0.0,0,0.0,0.0,1,/data_0006-0.
627995235,1766652729638469,0,0,-0.0027,-0.0002,1.0001,0.01,-0.0182,0.0555,-34.8344,5.9337,38.3141,23.98,-0.02,0.16,7.98,0.0,0.0,0.0,0.0,0,0.0,0.0,1,/data_0006-0.
628039488,1766652729682722,0,0,-0.0035,0.0003,0.9995,0.01,-0.003,0.0021,-34.8344,5.9337,38.3141,23.98,0.09,0.14,8.09,0.0,0.0,0.0,0.0,0,0.0,0.0,1,/data_0006-0.
628043235,1766652729686469,0,0,-0.0033,0.0001,0.9996,0.0176,-0.0106,-0.0055,-34.8344,5.9337,38.3141,23.99,0.1,0.14,8.1,0.0,0.0,0.0,0.0,0,0.0,0.0,1,/data_0006-0.
628047488,1766652729690722,0,0,-0.0032,0.0,0.9997,0.0253,-0.0182,-0.0055,-34.8344,5.9337,38.3141,23.98,0.1,0.14,8.11,0.0,0.0,0.0,0.0,0,0.0,0.0,1,/data_0006-0.
628051488,1766652729694722,0,0,-0.0034,0.0001,0.9995,0.0176,-0.0106,-0.0131,-34.8344,5.9337,38.3141,23.99,0.11,0.14,8.12,0.0,0.0,0.0,0.0,0,0.0,0.0,1,/data_0006-0.
628103488,1766652729746722,0,0,-0.0025,0.0013,0.9996,-0.0053,-0.0182,0.0021,-34.8344,5.9337,38.3141,23.98,0.19,0.13,8.23,0.0,0.0,0.0,0.0,0,0.0,0.0,1,/data_0006-0.
628107488,1766652729750722,0,0,-0.0027,0.001,0.9997,0.0024,-0.0106,0.0174,-34.8344,5.9337,38.3141,23.97,0.2,0.13,8.24,0.0,0.0,0.0,0.0,0,0.0,0.0,1,/data_0006-0.
628111488,1766652729754722,0,0,-0.0026,0.0009,1.0002,0.01,0.0047,0.0174,-34.8344,5.9337,38.3141,23.97,0.2,0.13,8.24,0.0,0.0,0.0,0.0,0,0.0,0.0,1,/data_0006-0.
628115488,1766652729758722,0,0,-0.0027,0.001,1.0006,-0.0053,-0.003,0.025,-34.8344,5.9337,38.3141,23.97,0.21,0.13,8.25,0.0,0.0,0.0,0.0,0,0.0,0.0,1,/data_0006-0.
628159488,1766652729802722,0,0,-0.0024,0.0004,0.9989,-0.0053,-0.0487,-0.0208,-34.8344,5.9337,38.3141,23.98,0.24,0.12,8.33,0.0,0.0,0.0,0.0,0,0.0,0.0,1,/data_0006-0.
628163488,1766652729806722,0,0,-0.0026,0.0004,0.9989,-0.0129,-0.0564,-0.0208,-34.8344,5.9337,38.3141,23.98,0.24,0.12,8.34,0.0,0.0,0.0,0.0,0,0.0,0.0,1,/data_0006-0.
628167488,1766652729810722,0,0,-0.0029,0.0001,0.9992,-0.0053,-0.0564,-0.0131,-34.8344,5.9337,38.3141,23.98,0.24,0.12,8.35,0.0,0.0,0.0,0.0,0,0.0,0.0,1,/data_0006-0.
628171488,1766652729814722,0,0,-0.0028,0.0001,0.9993,-0.0053,-0.0258,0.025,-34.8344,5.9337,38.3141,23.98,0.24,0.12,8.35,0.0,0.0,0.0,0.0,0,0.0,0.0,1,/data_0006-0.
628223488,1766652729866722,0,0,-0.0026,0.0001,0.9996,-0.0282,0.0123,0.0021,-34.8344,5.9337,38.3141,23.97,0.24,0.12,8.44,0.0,0.0,0.0,0.0,0,0.0,0.0,1,/data_0006-0.
628227488,1766652729870722,0,0,-0.0025,-0.0001,1.0,-0.0129,-0.003,0.0021,-34.8344,5.9337,38.3141,23.97,0.24,0.12,8.44,0.0,0.0,0.0,0.0,0,0.0,0.0,1,/data_0006-0.
628231488,1766652729874722,0,0,-0.0029,0.0001,0.9998,-0.0053,-0.0106,0.0098,-35.0131,4.675,39.5277,23.97,0.24,0.12,8.44,0.0,0.0,0.0,0.0,0,0.0,0.0,1,/data_0006-0.
628235488,1766652729878722,0,0,-0.0029,0.0004,1.0,-0.0053,-0.0106,0.0098,-35.0131,4.675,39.5277,23.97,0.22,0.12,8.44,0.0,0.0,0.0,0.0,0,0.0,0.0,1,/data_0006-0.
628279488,1766652729922722,0,0,-0.0032,0.0003,0.9997,0.0024,0.0047,0.0098,-35.0131,4.675,39.5277,23.98,0.11,0.15,8.37,0.0,0.0,0.0,0.0,0,0.0,0.0,1,/data_0006-0.
628283488,1766652729926722,0,0,-0.0032,0.0005,0.9996,-0.0053,-0.003,0.0174,-35.0131,4.675,39.5277,23.98,0.1,0.15,8.37,0.0,0.0,0.0,0.0,0,0.0,0.0,1,/data_0006-0.
628287734,1766652729930968,0,0,-0.0029,0.0005,0.9998,0.01,-0.0258,0.0174,-35.0131,4.675,39.5277,23.98,0.09,0.15,8.36,0.0,0.0,0.0,0.0,0,0.0,0.0,1,/data_0006-0.
628291492,1766652729934726,0,0,-0.0027,0.0005,0.9997,0.01,-0.0487,0.0021,-35.0131,4.675,39.5277,23.98,0.09,0.15,8.35,0.0,0.0,0.0,0.0,0,0.0,0.0,1,/data_0006-0.
628343234,1766652729986468,0,0,-0.0021,-0.0002,0.9997,0.0329,-0.0487,0.0327,-35.0131,4.675,39.5277,23.98,-0.0,0.16,8.29,0.0,0.0,0.0,0.0,0,0.0,0.0,1,/data_0006-0.
628347235,1766652729990469,0,0,-0.0024,-0.0,0.9992,0.0329,-0.0411,0.0327,-35.0131,4.675,39.5277,23.98,-0.01,0.16,8.29,0.0,0.0,0.0,0.0,0,0.0,0.0,1,/data_0006-0.
628351234,1766652729994468,0,0,-0.0024,0.0,0.9991,0.0253,-0.0564,0.0479,-35.0131,4.675,39.5277,23.98,-0.01,0.16,8.29,0.0,0.0,0.0,0.0,0,0.0,0.0,1,/data_0006-0.
628355234,1766652729998468,0,0,-0.0023,0.0001,0.9996,0.0329,-0.0564,0.0479,-35.0131,4.675,39.5277,23.98,-0.01,0.16,8.28,0.0,0.0,0.0,0.0,0,0.0,0.0,1,/data_0006-0.
628399488,1766652730042722,0,0,-0.0018,0.0002,0.9997,-0.0129,-0.0182,0.0098,-33.9413,4.675,38.4875,23.98,-0.03,0.14,8.26,0.0,0.0,0.0,0.0,0,0.0,0.0,1,/data_0006-0.
628403488,1766652730046722,0,0,-0.0018,0.0002,1.0,-0.0205,-0.0258,0.0098,-33.9413,4.675,38.4875,23.98,-0.03,0.14,8.25,0.0,0.0,0.0,0.0,0,0.0,0.0,1,/data_0006-0.
628407234,1766652730050468,0,0,-0.0016,0.0003,1.0005,-0.0129,-0.0258,0.0021,-33.9413,4.675,38.4875,23.98,-0.04,0.14,8.25,0.0,0.0,0.0,0.0,0,0.0,0.0,1,/data_0006-0.
628411235,1766652730054469,0,0,-0.0019,0.0003,1.0004,-0.0053,-0.0258,0.0021,-33.9413,4.675,38.4875,23.98,-0.04,0.14,8.25,0.0,0.0,0.0,0.0,0,0.0,0.0,1,/data_0006-0.
628463488,1766652730106722,0,0,-0.0024,0.0001,0.9996,0.0024,-0.003,0.0174,-33.9413,4.675,38.4875,23.98,-0.05,0.14,8.22,0.0,0.0,0.0,0.0,0,0.0,0.0,1,/data_0006-0.
628467488,1766652730110722,0,0,-0.0023,0.0001,0.9993,-0.0129,0.0047,0.0098,-33.9413,4.675,38.4875,23.98,-0.05,0.14,8.22,0.0,0.0,0.0,0.0,0,0.0,0.0,1,/data_0006-0.
628471491,1766652730114725,0,0,-0.0024,0.0003,0.9993,-0.0053,-0.003,0.0098,-33.9413,4.675,38.4875,23.98,-0.05,0.14,8.22,0.0,0.0,0.0,0.0,0,0.0,0.0,1,/data_0006-0.
628475488,1766652730118722,0,0,-0.0027,0.0003,0.9998,0.01,-0.0106,0.025,-33.9413,4.675,38.4875,23.98,-0.05,0.14,8.22,0.0,0.0,0.0,0.0,0,0.0,0.0,1,/data_0006-0.
628519488,1766652730162722,0,0,-0.0033,0.0002,1.0002,0.0253,-0.0258,0.0021,-33.7626,5.2145,37.6206,23.97,0.0,0.14,8.25,0.0,0.0,0.0,0.0,0,0.0,0.0,1,/data_0006-0.
628523488,1766652730166722,0,0,-0.0026,0.0,1.0005,0.0176,-0.0411,0.0021,-33.7626,5.2145,37.6206,23.97,0.0,0.14,8.26,0.0,0.0,0.0,0.0,0,0.0,0.0,1,/data_0006-0.
628527488,1766652730170722,0,0,-0.0023,0.0,1.0009,0.0176,-0.0182,0.0098,-33.7626,5.2145,37.6206,23.97,0.01,0.14,8.26,0.0,0.0,0.0,0.0,0,0.0,0.0,1,/data_0006-0.
628531488,1766652730174722,0,0,-0.0021,0.0002,1.0009,-0.0053,-0.0182,0.0098,-33.7626,5.2145,37.6206,23.97,0.01,0.14,8.26,0.0,0.0,0.0,0.0,0,0.0,0.0,1,/data_0006-0.
628583488,1766652730226722,0,0,-0.0018,-0.0002,1.0003,-0.0053,-0.0564,0.0174,-33.7626,5.2145,37.6206,23.98,0.04,0.13,8.3,0.0,0.0,0.0,0.0,0,0.0,0.0,1,/data_0006-0.
628587488,1766652730230722,0,0,-0.0017,-0.0001,1.0002,-0.0129,-0.064,0.0098,-33.7626,5.2145,37.6206,23.98,0.04,0.13,8.31,0.0,0.0,0.0,0.0,0,0.0,0.0,1,/data_0006-0.
628591488,1766652730234722,0,0,-0.0021,-0.0003,0.9998,-0.0129,-0.0487,0.025,-33.7626,5.2145,37.6206,23.98,0.05,0.13,8.31,0.0,0.0,0.0,0.0,0,0.0,0.0,1,/data_0006-0.
628595488,1766652730238722,0,0,-0.0025,-0.0001,0.9996,-0.0129,-0.0487,0.0098,-33.7626,5.2145,37.6206,23.97,0.05,0.13,8.31,0.0,0.0,0.0,0.0,0,0.0,0.0,1,/data_0006-0.
628639234,1766652730282468,0,0,-0.0023,0.0003,1.0007,0.01,-0.0182,0.025,-33.7626,5.9337,39.3543,23.97,0.13,0.12,8.4,0.0,0.0,0.0,0.0,0,0.0,0.0,1,/data_0006-0.
628643234,1766652730286468,0,0,-0.0023,0.0003,1.0008,0.0176,-0.0182,0.0098,-33.7626,5.9337,39.3543,23.97,0.13,0.12,8.41,0.0,0.0,0.0,0.0,0,0.0,0.0,1,/data_0006-0.
628647234,1766652730290468,0,0,-0.0021,0.0002,1.0006,0.0253,-0.0106,-0.0055,-33.7626,5.9337,39.3543,23.98,0.14,0.11,8.42,0.0,0.0,0.0,0.0,0,0.0,0.0,1,/data_0006-0.
628651488,1766652730294722,0,0,-0.0018,0.0003,1.0006,0.0176,-0.003,-0.0055,-33.7626,5.9337,39.3543,23.98,0.15,0.11,8.43,0.0,0.0,0.0,0.0,0,0.0,0.0,1,/data_0006-0.
628703488,1766652730346722,0,0,-0.0023,-0.0004,0.9996,0.0481,-0.0258,0.0174,-33.7626,5.9337,39.3543,23.97,0.2,0.1,8.53,0.0,0.0,0.0,0.0,0,0.0,0.0,1,/data_0006-0.
628707236,1766652730350470,0,0,-0.0024,-0.0005,1.0001,0.0481,-0.0182,0.025,-33.7626,5.9337,39.3543,23.98,0.2,0.1,8.54,0.0,0.0,0.0,0.0,0,0.0,0.0,1,/data_0006-0.
628711241,1766652730354475,0,0,-0.0023,-0.0005,1.0,0.0481,-0.0106,0.0327,-33.7626,5.9337,39.3543,23.98,0.2,0.1,8.55,0.0,0.0,0.0,0.0,0,0.0,0.0,1,/data_0006-0.
628715488,1766652730358722,0,0,-0.0022,-0.0004,1.0,0.0481,-0.0106,0.0098,-33.7626,5.9337,39.3543,23.98,0.21,0.1,8.56,0.0,0.0,0.0,0.0,0,0.0,0.0,1,/data_0006-0.
628759488,1766652730402722,0,0,-0.0028,-0.0004,0.9998,0.01,-0.003,0.0632,-35.0131,5.0347,38.1407,23.98,0.15,0.11,8.56,0.0,0.0,0.0,0.0,0,0.0,0.0,1,/data_0006-0.
628763488,1766652730406722,0,0,-0.0031,-0.0003,0.9993,0.0024,-0.0106,0.0479,-35.0131,5.0347,38.1407,23.98,0.14,0.11,8.56,0.0,0.0,0.0,0.0,0,0.0,0.0,1,/data_0006-0.
628767488,1766652730410722,0,0,-0.0034,-0.0,1.0,0.0024,0.0047,0.0555,-35.0131,5.0347,38.1407,23.98,0.13,0.11,8.56,0.0,0.0,0.0,0.0,0,0.0,0.0,1,/data_0006-0.
628771488,1766652730414722,0,0,-0.0032,0.0001,1.0002,0.01,0.0047,0.0479,-35.0131,5.0347,38.1407,23.98,0.12,0.11,8.55,0.0,0.0,0.0,0.0,0,0.0,0.0,1,/data_0006-0.
628823488,1766652730466722,0,0,-0.0021,-0.0003,0.9993,0.0176,0.0047,0.0403,-35.0131,5.0347,38.1407,23.98,0.06,0.13,8.52,0.0,0.0,0.0,0.0,0,0.0,0.0,1,/data_0006-0.
628827488,1766652730470722,0,0,-0.0022,-0.0004,0.9995,0.0176,-0.0106,0.0174,-35.0131,5.0347,38.1407,23.98,0.05,0.13,8.52,0.0,0.0,0.0,0.0,0,0.0,0.0,1,/data_0006-0.
628831488,1766652730474722,0,0,-0.0023,-0.0006,0.9999,0.01,-0.0106,0.0098,-35.0131,5.0347,38.1407,23.98,0.05,0.13,8.51,0.0,0.0,0.0,0.0,0,0.0,0.0,1,/data_0006-0.
628835488,1766652730478722,0,0,-0.0026,-0.0007,1.0,0.01,-0.0106,0.0174,-35.0131,5.0347,38.1407,23.98,0.04,0.13,8.51,0.0,0.0,0.0,0.0,0,0.0,0.0,1,/data_0006-0.
628879488,1766652730522722,0,0,-0.0028,0.0002,0.9995,0.0024,-0.0258,0.0098,-34.2985,4.3154,38.4875,23.99,-0.03,0.14,8.45,0.0,0.0,0.0,0.0,0,0.0,0.0,1,/data_0006-0.
628883488,1766652730526722,0,0,-0.0026,0.0005,0.9996,0.01,-0.0258,-0.0208,-34.2985,4.3154,38.4875,23.99,-0.03,0.14,8.45,0.0,0.0,0.0,0.0,0,0.0,0.0,1,/data_0006-0.
628887488,1766652730530722,0,0,-0.0026,0.0005,0.9999,-0.0053,-0.0182,-0.0208,-34.2985,4.3154,38.4875,23.99,-0.04,0.14,8.44,0.0,0.0,0.0,0.0,0,0.0,0.0,1,/data_0006-0.
628891488,1766652730534722,0,0,-0.0024,0.0005,1.0005,-0.0129,-0.0258,-0.0284,-34.2985,4.3154,38.4875,23.99,-0.05,0.15,8.43,0.0,0.0,0.0,0.0,0,0.0,0.0,1,/data_0006-0.
628943488,1766652730586722,0,0,-0.0023,0.0001,0.9997,0.0024,-0.0182,-0.0131,-34.2985,4.3154,38.4875,23.99,-0.11,0.16,8.34,0.0,0.0,0.0,0.0,0,0.0,0.0,1,/data_0006-0.
628947235,1766652730590469,0,0,-0.0021,-0.0003,1.0,0.01,-0.0258,-0.0055,-34.2985,4.3154,38.4875,23.99,-0.11,0.16,8.34,0.0,0.0,0.0,0.0,0,0.0,0.0,1,/data_0006-0.
628951235,1766652730594469,0,0,-0.0019,-0.0001,1.0001,0.0176,-0.0411,-0.0055,-34.2985,4.3154,38.4875,23.99,-0.12,0.16,8.33,0.0,0.0,0.0,0.0,0,0.0,0.0,1,/data_0006-0.
628955491,1766652730598725,0,0,-0.002,0.0001,0.9998,0.0024,-0.0411,-0.0208,-34.2985,4.3154,38.4875,23.99,-0.12,0.16,8.32,0.0,0.0,0.0,0.0,0,0.0,0.0,1,/data_0006-0.
628995235,1766652730638469,0,0,-0.0018,0.0005,0.9996,0.0024,-0.0335,-0.0436,-34.1199,4.4952,39.3543,23.99,-0.14,0.15,8.27,0.0,0.0,0.0,0.0,0,0.0,0.0,1,/data_0006-0.
628999234,1766652730642468,0,0,-0.0022,0.0005,0.9993,-0.0053,-0.0335,-0.0436,-34.1199,4.4952,39.3543,23.99,-0.14,0.15,8.27,0.0,0.0,0.0,0.0,0,0.0,0.0,1,/data_0006-0.
629003235,1766652730646469,0,0,-0.0023,0.0007,0.9996,-0.0205,-0.0182,-0.0513,-34.1199,4.4952,39.3543,23.99,-0.14,0.15,8.26,0.0,0.0,0.0,0.0,0,0.0,0.0,1,/data_0006-0.
629007234,1766652730650468,0,0,-0.0022,0.0005,0.9993,-0.0129,-0.0182,-0.036,-34.1199,4.4952,39.3543,23.98,-0.13,0.15,8.26,0.0,0.0,0.0,0.0,0,0.0,0.0,1,/data_0006-0.
629063234,1766652730706468,0,0,-0.0023,0.0004,0.9986,0.01,-0.0335,0.0174,-34.1199,4.4952,39.3543,23.98,-0.13,0.15,8.21,0.0,0.0,0.0,0.0,0,0.0,0.0,1,/data_0006-0.
629067488,1766652730710722,0,0,-0.0023,0.0004,0.9981,0.0329,-0.0258,0.0098,-34.1199,4.4952,39.3543,23.98,-0.13,0.15,8.21,0.0,0.0,0.0,0.0,0,0.0,0.0,1,/data_0006-0.
629071488,1766652730714722,0,0,-0.0024,0.0006,0.9982,0.01,-0.0335,-0.0055,-34.1199,4.4952,39.3543,23.98,-0.13,0.15,8.2,0.0,0.0,0.0,0.0,0,0.0,0.0,1,/data_0006-0.
629075488,1766652730718722,0,0,-0.0026,0.0004,0.998,0.01,-0.0411,0.0021,-34.1199,4.4952,39.3543,23.98,-0.13,0.15,8.2,0.0,0.0,0.0,0.0,0,0.0,0.0,1,/data_0006-0.
629128488,1766652730771722,0,0,-0.0026,-0.0003,0.9997,0.0024,-0.0335,-0.0284,-34.1199,4.4952,39.3543,23.98,-0.12,0.16,8.16,0.0,0.0,0.0,0.0,0,0.0,0.0,1,/data_0006-0.
629132488,1766652730775722,0,0,-0.0028,-0.0001,0.9996,0.0024,-0.0411,-0.0131,-34.1199,4.4952,39.3543,23.98,-0.12,0.16,8.15,0.0,0.0,0.0,0.0,0,0.0,0.0,1,/data_0006-0.
629136488,1766652730779722,0,0,-0.0027,-0.0001,0.9998,0.0024,-0.0335,-0.0055,-34.1199,4.4952,39.3543,23.98,-0.12,0.16,8.15,0.0,0.0,0.0,0.0,0,0.0,0.0,1,/data_0006-0.
629140488,1766652730783722,0,0,-0.0029,0.0001,1.0001,0.0024,-0.0411,0.0021,-34.1199,4.4952,39.3543,23.98,-0.12,0.16,8.15,0.0,0.0,0.0,0.0,0,0.0,0.0,1,/data_0006-0.
629180488,1766652730823722,0,0,-0.0026,0.0004,0.9989,0.01,-0.0411,-0.0055,-34.1199,4.4952,39.3543,23.98,-0.12,0.16,8.12,0.0,0.0,0.0,0.0,0,0.0,0.0,1,/data_0006-0.
629184488,1766652730827722,0,0,-0.0025,0.0007,0.9992,0.0176,-0.0411,0.0021,-34.1199,4.4952,39.3543,23.98,-0.12,0.16,8.12,0.0,0.0,0.0,0.0,0,0.0,0.0,1,/data_0006-0.
629188488,1766652730831722,0,0,-0.0023,0.001,0.9992,0.0176,-0.0335,0.0174,-34.1199,4.4952,39.3543,23.98,-0.11,0.16,8.11,0.0,0.0,0.0,0.0,0,0.0,0.0,1,/data_0006-0.
629192488,1766652730835722,0,0,-0.0022,0.0006,0.9993,0.0253,-0.0258,0.0327,-34.1199,4.4952,39.3543,23.98,-0.11,0.16,8.11,0.0,0.0,0.0,0.0,0,0.0,0.0,1,/data_0006-0.
629248488,1766652730891722,0,0,-0.0021,-0.0003,0.9991,0.0176,-0.064,-0.0055,-34.8344,5.9337,38.6608,23.99,-0.07,0.14,8.12,0.0,0.0,0.0,0.0,0,0.0,0.0,1,/data_0006-0.
