RX_ESP_elapsed_us,PC_time_us,UTC_Date,UTC_Time,AccX,AccY,AccZ,GyroX,GyroY,GyroZ,MagX,MagY,MagZ,Temp,Roll,Pitch,Yaw,Lat,Lng,Speed_kmph,Alt_meters,Satellites,HDOP,Heading
10147731,1766326442105495,0,0,-0.000468,0.000931,1.004514,0.007126,-0.051682,-0.00766,0.0,0.0,0.0,25.18,0.04,0.03,180.0,0.0,0.0,0.0,0.0,0,99.99,0.0
10174731,1766326442132495,0,0,-0.000285,0.000748,1.003294,-0.015762,-0.036423,-0.00766,0.0,0.0,0.0,25.18,0.04,0.02,180.0,0.0,0.0,0.0,0.0,0,99.99,0.0
10200731,1766326442158495,0,0,-0.000102,-0.00029,1.003843,-0.000503,-0.005905,-0.030548,0.0,0.0,0.0,25.18,-0.01,0.01,180.0,0.0,0.0,0.0,0.0,0,99.99,0.0
10226730,1766326442184494,0,0,-0.001079,-0.000229,1.002683,-0.008133,-0.036423,-3.1e-05,0.0,0.0,0.0,25.18,-0.0,0.06,180.0,0.0,0.0,0.0,0.0,0,99.99,0.0
10255739,1766326442213503,0,0,-0.000957,-4.6e-05,1.003782,-0.008133,-0.021164,-0.038177,0.0,0.0,0.0,25.19,-0.01,0.05,180.0,0.0,0.0,0.0,0.0,0,99.99,0.0
10284730,1766326442242494,0,0,-0.000468,-0.000473,1.00366,0.014755,-0.021164,-3.1e-05,0.0,0.0,0.0,25.2,-0.02,0.04,180.0,0.0,0.0,0.0,0.0,0,99.99,0.0
10310980,1766326442268744,0,0,-0.000774,-0.000595,1.003538,0.014755,-0.021164,-0.015289,0.0,0.0,0.0,25.19,-0.03,0.04,180.0,0.0,0.0,0.0,0.0,0,99.99,0.0
10341730,1766326442299494,0,0,-0.000529,0.000199,1.002378,-0.008133,0.009354,-0.022919,0.0,0.0,0.0,25.19,0.0,0.02,180.0,0.0,0.0,0.0,0.0,0,99.99,0.0
10367730,1766326442325494,0,0,-0.000957,0.000199,1.002561,0.037643,0.016983,-0.015289,0.0,0.0,0.0,25.19,0.0,0.05,180.0,0.0,0.0,0.0,0.0,0,99.99,0.0
10394730,1766326442352494,0,0,-0.000529,0.000687,1.003049,0.007126,-0.013535,0.022858,0.0,0.0,0.0,25.18,0.05,0.05,180.0,0.0,0.0,0.0,0.0,0,99.99,0.0
10420732,1766326442378496,0,0,-0.000651,0.000199,1.004087,-0.008133,-0.013535,-0.00766,0.0,0.0,0.0,25.18,0.01,0.03,180.0,0.0,0.0,0.0,0.0,0,99.99,0.0
10446734,1766326442404498,0,0,-0.000102,1.6e-05,1.003538,0.030014,-0.005905,-0.015289,0.0,0.0,0.0,25.18,0.01,0.0,180.0,0.0,0.0,0.0,0.0,0,99.99,0.0
10490738,1766326442448502,0,0,-0.000957,0.000931,1.004331,-0.008133,-0.028793,0.015228,0.0,0.0,0.0,25.19,0.05,0.06,180.0,0.0,0.0,0.0,0.0,0,99.99,0.0
10517731,1766326442475495,0,0,-0.000774,0.00087,1.005125,-0.023392,-0.044052,-3.1e-05,0.0,0.0,0.0,25.19,0.05,0.05,180.0,0.0,0.0,0.0,0.0,0,99.99,0.0
10544737,1766326442502501,0,0,-0.00114,0.000138,1.004148,-0.03865,-0.021164,-0.00766,0.0,0.0,0.0,25.19,0.01,0.08,180.0,0.0,0.0,0.0,0.0,0,99.99,0.0
10569731,1766326442527495,0,0,-0.00059,-0.000229,1.003904,-0.015762,-0.028793,0.022858,0.0,0.0,0.0,25.19,-0.0,0.05,180.0,0.0,0.0,0.0,0.0,0,99.99,0.0
10595730,1766326442553494,0,0,-0.001018,-0.000412,1.002927,-0.031021,-0.028793,0.022858,0.0,0.0,0.0,25.19,-0.03,0.05,180.0,0.0,0.0,0.0,0.0,0,99.99,0.0
10620733,1766326442578497,0,0,-0.000713,-0.000412,1.002988,-0.008133,-0.005905,-3.1e-05,0.0,0.0,0.0,25.18,-0.03,0.05,180.0,0.0,0.0,0.0,0.0,0,99.99,0.0
10647731,1766326442605495,0,0,-0.000102,7.7e-05,1.004026,0.014755,-0.028793,0.007599,0.0,0.0,0.0,25.19,-0.0,0.01,180.0,0.0,0.0,0.0,0.0,0,99.99,0.0
10673732,1766326442631496,0,0,-0.000713,0.000565,1.003232,-0.000503,-0.021164,-3.1e-05,0.0,0.0,0.0,25.19,0.02,0.06,180.0,0.0,0.0,0.0,0.0,0,99.99,0.0
10700731,1766326442658495,0,0,-0.000346,0.000748,1.002988,-0.015762,-0.005905,-0.00766,0.0,0.0,0.0,25.19,0.04,0.0,180.0,0.0,0.0,0.0,0.0,0,99.99,0.0
10725731,1766326442683495,0,0,-0.000224,0.000931,1.002866,-0.015762,-0.005905,0.015228,0.0,0.0,0.0,25.19,0.06,0.01,180.0,0.0,0.0,0.0,0.0,0,99.99,0.0
10753730,1766326442711494,0,0,-0.000224,0.000565,1.004148,-0.000503,0.001724,0.030487,0.0,0.0,0.0,25.19,0.04,0.02,180.0,0.0,0.0,0.0,0.0,0,99.99,0.0
10779730,1766326442737494,0,0,-0.000774,0.00026,1.003843,0.007126,-0.005905,0.015228,0.0,0.0,0.0,25.19,0.0,0.03,180.0,0.0,0.0,0.0,0.0,0,99.99,0.0
10797730,1766326442755494,0,0,-0.001262,0.00026,1.00427,-0.000503,0.001724,0.015228,0.0,0.0,0.0,25.19,0.01,0.07,180.0,0.0,0.0,0.0,0.0,0,99.99,0.0
10822730,1766326442780494,0,0,-0.000102,0.000626,1.003599,-0.061539,-0.028793,-0.038177,0.0,0.0,0.0,25.19,0.04,0.01,180.0,0.0,0.0,0.0,0.0,0,99.99,0.0
10847731,1766326442805495,0,0,-0.000835,0.000199,1.003599,-0.031021,-0.036423,-0.022919,0.0,0.0,0.0,25.19,0.0,0.03,180.0,0.0,0.0,0.0,0.0,0,99.99,0.0
10889730,1766326442847494,0,0,-0.000529,0.000626,1.003355,-0.031021,-0.028793,0.030487,0.0,0.0,0.0,25.18,0.04,0.03,180.0,0.0,0.0,0.0,0.0,0,99.99,0.0
10916730,1766326442874494,0,0,-0.000346,0.000199,1.00366,-0.031021,-0.028793,0.015228,0.0,0.0,0.0,25.19,-0.0,0.02,180.0,0.0,0.0,0.0,0.0,0,99.99,0.0
10942730,1766326442900494,0,0,-0.000102,0.00026,1.003599,-0.015762,0.009354,-0.00766,0.0,0.0,0.0,25.19,0.01,0.02,180.0,0.0,0.0,0.0,0.0,0,99.99,0.0
10970730,1766326442928494,0,0,-0.000407,0.000199,1.002317,-0.000503,-0.021164,0.007599,0.0,0.0,0.0,25.19,0.01,0.02,180.0,0.0,0.0,0.0,0.0,0,99.99,0.0
10997731,1766326442955495,0,0,-0.00059,0.000626,1.002561,0.022385,0.009354,-3.1e-05,0.0,0.0,0.0,25.19,0.03,0.04,180.0,0.0,0.0,0.0,0.0,0,99.99,0.0
11025731,1766326442983495,0,0,-0.00059,0.000321,1.002683,0.030014,0.001724,-0.00766,0.0,0.0,0.0,25.19,0.02,0.03,180.0,0.0,0.0,0.0,0.0,0,99.99,0.0
11052730,1766326443010494,0,0,-0.000285,0.001236,1.003049,-0.008133,-0.036423,-0.030548,0.0,0.0,0.0,25.19,0.07,0.02,180.0,0.0,0.0,0.0,0.0,0,99.99,0.0
11077732,1766326443035496,0,0,0.000569,0.000382,1.00366,-0.008133,0.001724,-0.030548,0.0,0.0,0.0,25.19,0.03,-0.04,180.0,0.0,0.0,0.0,0.0,0,99.99,0.0
11095737,1766326443053501,0,0,2e-05,0.000382,1.00366,0.007126,-0.013535,-0.030548,0.0,0.0,0.0,25.19,0.02,0.0,180.0,0.0,0.0,0.0,0.0,0,99.99,0.0
11122731,1766326443080495,0,0,-0.000774,-0.000412,1.003721,0.007126,-0.021164,-0.015289,0.0,0.0,0.0,25.19,-0.03,0.04,180.0,0.0,0.0,0.0,0.0,0,99.99,0.0
11148730,1766326443106494,0,0,-0.001018,0.000443,1.00427,-0.031021,0.001724,-3.1e-05,0.0,0.0,0.0,25.19,0.02,0.06,180.0,0.0,0.0,0.0,0.0,0,99.99,0.0
11174730,1766326443132494,0,0,-0.000713,0.00087,1.003538,-0.031021,-0.036423,-3.1e-05,0.0,0.0,0.0,25.19,0.06,0.03,180.0,0.0,0.0,0.0,0.0,0,99.99,0.0
11200731,1766326443158495,0,0,-0.000957,0.000565,1.00311,-0.04628,-0.059311,-0.00766,0.0,0.0,0.0,25.2,0.02,0.04,180.0,0.0,0.0,0.0,0.0,0,99.99,0.0
11226731,1766326443184495,0,0,-0.001262,0.000687,1.002866,-0.04628,-0.021164,0.015228,0.0,0.0,0.0,25.2,0.05,0.09,180.0,0.0,0.0,0.0,0.0,0,99.99,0.0
11246731,1766326443204495,0,0,-0.001384,0.000809,1.002378,-0.008133,-0.013535,0.022858,0.0,0.0,0.0,25.2,0.04,0.09,180.0,0.0,0.0,0.0,0.0,0,99.99,0.0
11272730,1766326443230494,0,0,0.000264,0.000565,1.004026,0.014755,-0.005905,0.030487,0.0,0.0,0.0,25.19,0.03,-0.0,180.0,0.0,0.0,0.0,0.0,0,99.99,0.0
11314737,1766326443272501,0,0,-0.000224,0.000687,1.003843,0.014755,0.009354,0.015228,0.0,0.0,0.0,25.19,0.02,0.01,180.0,0.0,0.0,0.0,0.0,0,99.99,0.0
11342731,1766326443300495,0,0,0.000569,0.000809,1.002683,0.007126,-0.036423,0.038116,0.0,0.0,0.0,25.18,0.06,-0.03,180.0,0.0,0.0,0.0,0.0,0,99.99,0.0
11368733,1766326443326497,0,0,-0.000224,0.000321,1.002012,-0.023392,-0.036423,0.030487,0.0,0.0,0.0,25.19,0.02,0.01,180.0,0.0,0.0,0.0,0.0,0,99.99,0.0
11394731,1766326443352495,0,0,-0.000407,0.000687,1.002988,0.007126,-0.06694,0.022858,0.0,0.0,0.0,25.2,0.04,0.02,180.0,0.0,0.0,0.0,0.0,0,99.99,0.0
11419734,1766326443377498,0,0,-0.000896,0.000565,1.003599,0.007126,-0.036423,0.053375,0.0,0.0,0.0,25.19,0.04,0.05,180.0,0.0,0.0,0.0,0.0,0,99.99,0.0
11446730,1766326443404494,0,0,-0.00114,0.000992,1.00366,0.007126,-0.021164,0.022858,0.0,0.0,0.0,25.2,0.05,0.07,180.0,0.0,0.0,0.0,0.0,0,99.99,0.0
11471731,1766326443429495,0,0,-0.000651,0.001236,1.003171,-0.000503,-0.013535,-3.1e-05,0.0,0.0,0.0,25.2,0.09,0.04,180.0,0.0,0.0,0.0,0.0,0,99.99,0.0
11497730,1766326443455494,0,0,-0.00059,0.000809,1.002683,-0.008133,-0.036423,-3.1e-05,0.0,0.0,0.0,25.19,0.04,0.05,180.0,0.0,0.0,0.0,0.0,0,99.99,0.0
11522732,1766326443480496,0,0,-0.000346,0.00026,1.003599,-0.008133,-0.021164,-0.00766,0.0,0.0,0.0,25.19,0.03,0.01,180.0,0.0,0.0,0.0,0.0,0,99.99,0.0
11540731,1766326443498495,0,0,-0.000224,-4.6e-05,1.003232,-0.015762,-0.021164,-0.015289,0.0,0.0,0.0,25.19,-0.02,0.02,180.0,0.0,0.0,0.0,0.0,0,99.99,0.0
11566730,1766326443524494,0,0,-0.000346,0.000321,1.003232,0.022385,-0.044052,-0.022919,0.0,0.0,0.0,25.21,0.03,0.03,180.0,0.0,0.0,0.0,0.0,0,99.99,0.0
11592980,1766326443550744,0,0,-0.000285,0.000199,1.003171,0.030014,-0.005905,-0.022919,0.0,0.0,0.0,25.2,0.01,0.02,180.0,0.0,0.0,0.0,0.0,0,99.99,0.0
11617730,1766326443575494,0,0,-0.000651,0.000748,1.002683,0.007126,-0.005905,0.022858,0.0,0.0,0.0,25.2,0.04,0.04,180.0,0.0,0.0,0.0,0.0,0,99.99,0.0
11643730,1766326443601494,0,0,-0.001079,0.001114,1.003171,-0.015762,-0.021164,0.038116,0.0,0.0,0.0,25.2,0.07,0.06,180.0,0.0,0.0,0.0,0.0,0,99.99,0.0
11676732,1766326443634496,0,0,-0.000774,0.000565,1.003416,0.007126,-0.036423,0.022858,0.0,0.0,0.0,25.2,0.03,0.05,180.0,0.0,0.0,0.0,0.0,0,99.99,0.0
11742738,1766326443700502,0,0,-0.001079,0.000809,1.003171,0.030014,-0.051682,0.007599,0.0,0.0,0.0,25.2,0.05,0.06,180.0,0.0,0.0,0.0,0.0,0,99.99,0.0
11769730,1766326443727494,0,0,-0.000835,0.000321,1.004819,0.052902,-0.013535,0.068634,0.0,0.0,0.0,25.2,0.0,0.05,180.0,0.0,0.0,0.0,0.0,0,99.99,0.0
11794731,1766326443752495,0,0,-0.001384,0.000992,1.003416,0.022385,-0.005905,0.053375,0.0,0.0,0.0,25.2,0.07,0.08,180.0,0.0,0.0,0.0,0.0,0,99.99,0.0
11823730,1766326443781494,0,0,-0.000957,0.000565,1.003232,-0.000503,-0.021164,0.030487,0.0,0.0,0.0,25.2,0.02,0.05,180.0,0.0,0.0,0.0,0.0,0,99.99,0.0
11848732,1766326443806496,0,0,-0.000896,0.000565,1.003599,0.014755,-0.005905,0.030487,0.0,0.0,0.0,25.2,0.03,0.05,180.0,0.0,0.0,0.0,0.0,0,99.99,0.0
11874730,1766326443832494,0,0,-0.001018,0.001297,1.00366,0.007126,-0.013535,-3.1e-05,0.0,0.0,0.0,25.2,0.09,0.05,180.0,0.0,0.0,0.0,0.0,0,99.99,0.0
11899730,1766326443857494,0,0,-0.000774,0.001297,1.004026,-0.008133,-0.013535,-0.00766,0.0,0.0,0.0,25.21,0.08,0.06,180.0,0.0,0.0,0.0,0.0,0,99.99,0.0
11925732,1766326443883496,0,0,-0.000774,0.001419,1.003355,-0.008133,-0.005905,-0.030548,0.0,0.0,0.0,25.2,0.09,0.04,180.0,0.0,0.0,0.0,0.0,0,99.99,0.0
11950732,1766326443908496,0,0,-0.001018,-4.6e-05,1.002561,-0.000503,-0.044052,-0.015289,0.0,0.0,0.0,25.2,-0.0,0.06,180.0,0.0,0.0,0.0,0.0,0,99.99,0.0
11997730,1766326443955494,0,0,-0.00114,0.000443,1.00189,-0.015762,-0.005905,-0.022919,0.0,0.0,0.0,25.2,0.03,0.07,180.0,0.0,0.0,0.0,0.0,0,99.99,0.0
12023980,1766326443981744,0,0,-0.001201,0.000504,1.00427,-0.015762,-0.021164,-0.00766,0.0,0.0,0.0,25.2,0.02,0.06,180.0,0.0,0.0,0.0,0.0,0,99.99,0.0
12049731,1766326444007495,0,0,-0.000651,0.000626,1.003965,-0.015762,-0.028793,-3.1e-05,0.0,0.0,0.0,25.2,0.04,0.04,180.0,0.0,0.0,0.0,0.0,0,99.99,0.0
12075731,1766326444033495,0,0,-0.000163,0.000687,1.003232,-0.03865,-0.036423,-0.061066,0.0,0.0,0.0,25.2,0.05,0.0,180.0,0.0,0.0,0.0,0.0,0,99.99,0.0
12100732,1766326444058496,0,0,-0.000163,0.000382,1.002805,-0.000503,-0.051682,0.007599,0.0,0.0,0.0,25.2,0.03,-0.01,180.0,0.0,0.0,0.0,0.0,0,99.99,0.0
12141730,1766326444099494,0,0,-0.000285,0.000199,1.003049,0.022385,-0.021164,-0.00766,0.0,0.0,0.0,25.21,0.01,0.03,180.0,0.0,0.0,0.0,0.0,0,99.99,0.0
12167738,1766326444125502,0,0,-0.000102,7.7e-05,1.00427,0.022385,-0.028793,0.007599,0.0,0.0,0.0,25.21,0.01,-0.01,180.0,0.0,0.0,0.0,0.0,0,99.99,0.0
12194732,1766326444152496,0,0,-0.000407,0.000931,1.003721,0.007126,-0.028793,-0.022919,0.0,0.0,0.0,25.21,0.05,0.02,180.0,0.0,0.0,0.0,0.0,0,99.99,0.0
12220730,1766326444178494,0,0,-0.000713,0.000626,1.003538,-0.008133,-0.021164,-0.022919,0.0,0.0,0.0,25.21,0.02,0.05,180.0,0.0,0.0,0.0,0.0,0,99.99,0.0
12247730,1766326444205494,0,0,-0.001384,0.000748,1.002561,-0.015762,-0.013535,-3.1e-05,0.0,0.0,0.0,25.19,0.05,0.08,180.0,0.0,0.0,0.0,0.0,0,99.99,0.0
12273730,1766326444231494,0,0,-0.001262,0.000748,1.002866,-0.023392,0.039871,-3.1e-05,0.0,0.0,0.0,25.19,0.05,0.07,180.0,0.0,0.0,0.0,0.0,0,99.99,0.0
12300731,1766326444258495,0,0,-0.001445,0.000321,1.003782,0.007126,0.024612,0.030487,0.0,0.0,0.0,25.2,0.02,0.07,180.0,0.0,0.0,0.0,0.0,0,99.99,0.0
12328731,1766326444286495,0,0,-0.000835,0.000321,1.002378,-0.000503,0.016983,0.061005,0.0,0.0,0.0,25.21,0.01,0.03,180.0,0.0,0.0,0.0,0.0,0,99.99,0.0
12354730,1766326444312494,0,0,-0.001323,0.000992,1.002927,-0.000503,0.001724,0.007599,0.0,0.0,0.0,25.21,0.04,0.08,180.0,0.0,0.0,0.0,0.0,0,99.99,0.0
12387731,1766326444345495,0,0,-0.001445,0.00087,1.002805,-0.000503,-0.013535,0.015228,0.0,0.0,0.0,25.21,0.05,0.08,180.0,0.0,0.0,0.0,0.0,0,99.99,0.0
12413731,1766326444371495,0,0,-0.000346,0.000199,1.003843,-0.023392,-0.005905,0.015228,0.0,0.0,0.0,25.21,0.03,0.03,180.0,0.0,0.0,0.0,0.0,0,99.99,0.0
12438731,1766326444396495,0,0,-0.000224,-4.6e-05,1.003538,0.007126,-0.028793,0.038116,0.0,0.0,0.0,25.21,-0.02,-0.0,180.0,0.0,0.0,0.0,0.0,0,99.99,0.0
12463730,1766326444421494,0,0,-0.000224,1.6e-05,1.002927,-0.000503,-0.036423,-3.1e-05,0.0,0.0,0.0,25.2,-0.02,0.02,180.0,0.0,0.0,0.0,0.0,0,99.99,0.0
12490730,1766326444448494,0,0,-0.000346,0.000565,1.003355,0.007126,-0.036423,-0.022919,0.0,0.0,0.0,25.2,0.05,0.02,180.0,0.0,0.0,0.0,0.0,0,99.99,0.0
12515730,1766326444473494,0,0,-0.000285,0.000992,1.002683,-0.000503,-0.036423,-0.015289,0.0,0.0,0.0,25.2,0.05,0.02,180.0,0.0,0.0,0.0,0.0,0,99.99,0.0
12564731,1766326444522495,0,0,-0.00059,0.000626,1.003782,-0.000503,-0.028793,-0.015289,0.0,0.0,0.0,25.2,0.05,0.04,180.0,0.0,0.0,0.0,0.0,0,99.99,0.0
12591730,1766326444549494,0,0,-0.000224,0.000443,1.003232,0.007126,-0.028793,-0.015289,0.0,0.0,0.0,25.2,0.03,0.01,180.0,0.0,0.0,0.0,0.0,0,99.99,0.0
12616730,1766326444574494,0,0,-0.00059,0.00087,1.003294,-0.008133,-0.028793,-0.022919,0.0,0.0,0.0,25.2,0.04,0.03,180.0,0.0,0.0,0.0,0.0,0,99.99,0.0
12643731,1766326444601495,0,0,-0.000651,0.000565,1.003538,-0.031021,-0.021164,-0.00766,0.0,0.0,0.0,25.19,0.02,0.03,180.0,0.0,0.0,0.0,0.0,0,99.99,0.0
12669731,1766326444627495,0,0,-0.001018,0.000321,1.00366,-0.000503,-0.036423,-0.00766,0.0,0.0,0.0,25.2,0.02,0.05,180.0,0.0,0.0,0.0,0.0,0,99.99,0.0
12696731,1766326444654495,0,0,-0.000774,0.000138,1.003538,-0.015762,-0.036423,-0.015289,0.0,0.0,0.0,25.21,0.01,0.06,180.0,0.0,0.0,0.0,0.0,0,99.99,0.0
12721731,1766326444679495,0,0,-0.00059,-0.000229,1.002927,-0.015762,-0.028793,-3.1e-05,0.0,0.0,0.0,25.2,-0.0,0.03,180.0,0.0,0.0,0.0,0.0,0,99.99,0.0
12747730,1766326444705494,0,0,-4.1e-05,0.000199,1.005002,-0.053909,-0.06694,0.030487,0.0,0.0,0.0,25.2,0.02,-0.01,180.0,0.0,0.0,0.0,0.0,0,99.99,0.0
12773730,1766326444731494,0,0,-0.001201,0.000626,1.004697,-0.099686,-0.089828,-3.1e-05,0.0,0.0,0.0,25.2,0.03,0.07,180.0,0.0,0.0,0.0,0.0,0,99.99,0.0
12799730,1766326444757494,0,0,-0.000468,0.001053,1.003538,-0.107315,-0.051682,0.022858,0.0,0.0,0.0,25.21,0.04,0.03,180.0,0.0,0.0,0.0,0.0,0,99.99,0.0
12824731,1766326444782495,0,0,-0.000468,0.000626,1.000059,-0.084427,-0.036423,0.038116,0.0,0.0,0.0,25.21,0.04,0.02,180.0,0.0,0.0,0.0,0.0,0,99.99,0.0
12851730,1766326444809494,0,0,-0.000468,0.000809,1.004575,-0.000503,-0.005905,0.015228,0.0,0.0,0.0,25.2,0.05,0.03,180.0,0.0,0.0,0.0,0.0,0,99.99,0.0
12877730,1766326444835494,0,0,-0.000407,0.000382,1.0025,-0.008133,-0.036423,0.038116,0.0,0.0,0.0,25.2,0.04,0.02,180.0,0.0,0.0,0.0,0.0,0,99.99,0.0
12904730,1766326444862494,0,0,-0.000468,0.000321,1.002683,-0.015762,-0.06694,0.053375,0.0,0.0,0.0,25.21,0.02,0.03,180.0,0.0,0.0,0.0,0.0,0,99.99,0.0
12932730,1766326444890494,0,0,-4.1e-05,0.000443,1.00366,-0.015762,-0.036423,0.076263,0.0,0.0,0.0,25.2,0.03,-0.01,180.0,0.0,0.0,0.0,0.0,0,99.99,0.0
12972739,1766326444930503,0,0,2e-05,0.000321,1.003538,-0.000503,-0.036423,0.022858,0.0,0.0,0.0,25.2,0.03,0.0,180.0,0.0,0.0,0.0,0.0,0,99.99,0.0
12999731,1766326444957495,0,0,0.000203,-0.000107,1.001829,-0.000503,-0.07457,0.022858,0.0,0.0,0.0,25.19,-0.01,-0.0,180.0,0.0,0.0,0.0,0.0,0,99.99,0.0
13025732,1766326444983496,0,0,0.000264,0.000382,1.00366,-0.008133,-0.044052,0.015228,0.0,0.0,0.0,25.19,0.03,-0.01,180.0,0.0,0.0,0.0,0.0,0,99.99,0.0
13053732,1766326445011496,0,0,-0.000102,0.000382,1.003477,-0.000503,-0.021164,0.007599,0.0,0.0,0.0,25.19,0.02,0.02,180.0,0.0,0.0,0.0,0.0,0,99.99,0.0
13079732,1766326445037496,0,0,-0.000102,0.000443,1.002561,-0.03865,0.039871,0.007599,0.0,0.0,0.0,25.2,0.02,-0.0,180.0,0.0,0.0,0.0,0.0,0,99.99,0.0
13106732,1766326445064496,0,0,-0.000651,0.000565,1.003965,-0.008133,0.009354,-0.00766,0.0,0.0,0.0,25.19,0.04,0.06,180.0,0.0,0.0,0.0,0.0,0,99.99,0.0
13132730,1766326445090494,0,0,-0.000346,0.001358,1.002012,-0.031021,0.039871,0.015228,0.0,0.0,0.0,25.19,0.08,0.03,180.0,0.0,0.0,0.0,0.0,0,99.99,0.0
13159731,1766326445117495,0,0,-0.000163,0.00087,1.003782,-0.023392,-0.021164,0.038116,0.0,0.0,0.0,25.2,0.04,0.01,180.0,0.0,0.0,0.0,0.0,0,99.99,0.0
13180731,1766326445138495,0,0,-0.00059,0.000565,1.00311,-0.015762,-0.005905,0.038116,0.0,0.0,0.0,25.19,0.03,0.03,180.0,0.0,0.0,0.0,0.0,0,99.99,0.0
13206734,1766326445164498,0,0,-0.000285,0.000138,1.002683,-0.023392,-0.028793,0.007599,0.0,0.0,0.0,25.2,0.02,0.03,180.0,0.0,0.0,0.0,0.0,0,99.99,0.0
13233732,1766326445191496,0,0,0.000264,-0.000168,1.003538,0.007126,-0.013535,-0.00766,0.0,0.0,0.0,25.19,-0.0,-0.01,180.0,0.0,0.0,0.0,0.0,0,99.99,0.0
13259733,1766326445217497,0,0,-0.000468,-0.000168,1.003171,-0.008133,-0.021164,-0.00766,0.0,0.0,0.0,25.19,-0.01,0.02,180.0,0.0,0.0,0.0,0.0,0,99.99,0.0
13286733,1766326445244497,0,0,-0.000224,0.000504,1.004758,-0.015762,-0.028793,-0.053436,0.0,0.0,0.0,25.19,0.04,-0.01,180.0,0.0,0.0,0.0,0.0,0,99.99,0.0
13312731,1766326445270495,0,0,8.1e-05,0.000931,1.003843,0.022385,-0.021164,-0.015289,0.0,0.0,0.0,25.2,0.03,-0.01,180.0,0.0,0.0,0.0,0.0,0,99.99,0.0
13340731,1766326445298495,0,0,-0.000346,0.000321,1.002805,-0.008133,-0.036423,-0.030548,0.0,0.0,0.0,25.19,0.01,0.03,180.0,0.0,0.0,0.0,0.0,0,99.99,0.0
13578730,1766326445536494,0,0,-0.000957,0.000565,1.003232,0.007126,-0.06694,0.022858,0.0,0.0,0.0,25.2,0.03,0.05,180.0,0.0,0.0,0.0,0.0,0,99.99,0.0
13973730,1766326445931494,0,0,-0.000102,0.000687,1.004331,-0.008133,-0.059311,-0.00766,0.0,0.0,0.0,25.21,0.03,0.02,180.0,0.0,0.0,0.0,0.0,0,99.99,0.0
14658731,1766326446616495,0,0,-0.000163,0.000809,1.002622,0.007126,-0.028793,0.022858,0.0,0.0,0.0,25.21,0.05,0.01,180.0,0.0,0.0,0.0,0.0,0,99.99,0.0
14695730,1766326446653494,0,0,-0.000774,0.000626,1.0025,0.007126,-0.021164,0.007599,0.0,0.0,0.0,25.21,0.03,0.04,180.0,0.0,0.0,0.0,0.0,0,99.99,0.0
14726730,1766326446684494,0,0,-0.000651,0.000626,1.002439,-0.008133,-0.044052,-0.015289,0.0,0.0,0.0,25.21,0.04,0.04,180.0,0.0,0.0,0.0,0.0,0,99.99,0.0
14763730,1766326446721494,0,0,-0.000651,0.000199,1.002988,-0.000503,-0.051682,-0.045807,0.0,0.0,0.0,25.21,0.01,0.02,180.0,0.0,0.0,0.0,0.0,0,99.99,0.0
14796731,1766326446754495,0,0,-0.000346,-0.000107,1.002866,-0.015762,-0.028793,-0.038177,0.0,0.0,0.0,25.22,-0.02,0.03,180.0,0.0,0.0,0.0,0.0,0,99.99,0.0
14830730,1766326446788494,0,0,-0.000407,-0.000168,1.002744,-0.008133,-0.044052,0.022858,0.0,0.0,0.0,25.22,-0.02,0.04,180.0,0.0,0.0,0.0,0.0,0,99.99,0.0
14861734,1766326446819498,0,0,-0.000651,0.00026,1.003355,-0.000503,-0.036423,0.030487,0.0,0.0,0.0,25.21,0.03,0.03,180.0,0.0,0.0,0.0,0.0,0,99.99,0.0
14890730,1766326446848494,0,0,-0.000651,0.000382,1.002012,-0.008133,-0.051682,0.030487,0.0,0.0,0.0,25.22,0.02,0.02,180.0,0.0,0.0,0.0,0.0,0,99.99,0.0
14920734,1766326446878498,0,0,2e-05,0.000748,1.002561,-0.031021,-0.013535,-3.1e-05,0.0,0.0,0.0,25.22,0.04,-0.0,180.0,0.0,0.0,0.0,0.0,0,99.99,0.0
14949730,1766326446907494,0,0,0.000142,-0.000473,1.003904,-0.03865,0.001724,-0.022919,0.0,0.0,0.0,25.21,-0.03,-0.01,180.0,0.0,0.0,0.0,0.0,0,99.99,0.0
14978730,1766326446936494,0,0,-4.1e-05,-0.000229,1.002866,-0.000503,-0.021164,-0.038177,0.0,0.0,0.0,25.21,-0.02,0.01,180.0,0.0,0.0,0.0,0.0,0,99.99,0.0
15009730,1766326446967494,0,0,0.000325,7.7e-05,1.000791,-0.023392,-0.028793,-0.015289,0.0,0.0,0.0,25.21,0.01,-0.01,180.0,0.0,0.0,0.0,0.0,0,99.99,0.0
15052730,1766326447010494,0,0,-4.1e-05,0.000931,1.004087,-0.000503,-0.028793,-0.022919,0.0,0.0,0.0,25.22,0.05,0.01,180.0,0.0,0.0,0.0,0.0,0,99.99,0.0
15082731,1766326447040495,0,0,2e-05,0.000321,1.003599,-0.015762,-0.036423,-0.038177,0.0,0.0,0.0,25.22,0.02,0.01,180.0,0.0,0.0,0.0,0.0,0,99.99,0.0
15113731,1766326447071495,0,0,0.000142,0.000382,1.00311,0.014755,-0.021164,-0.00766,0.0,0.0,0.0,25.22,0.03,-0.01,180.0,0.0,0.0,0.0,0.0,0,99.99,0.0
15143730,1766326447101494,0,0,-0.000102,0.000443,1.00311,-0.008133,-0.028793,-0.00766,0.0,0.0,0.0,25.22,0.03,0.01,180.0,0.0,0.0,0.0,0.0,0,99.99,0.0
15174980,1766326447132744,0,0,-0.000346,0.000443,1.003721,0.007126,-0.021164,-0.00766,0.0,0.0,0.0,25.23,0.02,0.03,180.0,0.0,0.0,0.0,0.0,0,99.99,0.0
15204980,1766326447162744,0,0,-4.1e-05,0.000809,1.003232,-0.000503,0.009354,-0.015289,0.0,0.0,0.0,25.23,0.06,0.01,180.0,0.0,0.0,0.0,0.0,0,99.99,0.0
15236980,1766326447194744,0,0,-0.000163,0.000992,1.002988,0.037643,0.016983,0.030487,0.0,0.0,0.0,25.22,0.07,-0.0,180.0,0.0,0.0,0.0,0.0,0,99.99,0.0
15266730,1766326447224494,0,0,-0.000346,0.000199,1.003538,0.014755,-0.021164,0.022858,0.0,0.0,0.0,25.21,0.01,0.02,180.0,0.0,0.0,0.0,0.0,0,99.99,0.0
15297980,1766326447255744,0,0,-0.000346,0.000382,1.004514,0.014755,-0.044052,-0.022919,0.0,0.0,0.0,25.23,0.01,0.04,180.0,0.0,0.0,0.0,0.0,0,99.99,0.0
15326734,1766326447284498,0,0,2e-05,7.7e-05,1.003721,0.022385,-0.021164,-3.1e-05,0.0,0.0,0.0,25.21,-0.0,0.01,180.0,0.0,0.0,0.0,0.0,0,99.99,0.0
15346731,1766326447304495,0,0,-0.000102,0.000626,1.003049,-0.000503,-0.013535,0.022858,0.0,0.0,0.0,25.21,0.03,0.0,180.0,0.0,0.0,0.0,0.0,0,99.99,0.0
15376738,1766326447334502,0,0,-0.000713,0.000565,1.003416,-0.000503,-0.028793,-3.1e-05,0.0,0.0,0.0,25.21,0.03,0.04,180.0,0.0,0.0,0.0,0.0,0,99.99,0.0
15407730,1766326447365494,0,0,-0.000957,0.00026,1.003538,-0.023392,-0.036423,0.061005,0.0,0.0,0.0,25.21,0.01,0.07,180.0,0.0,0.0,0.0,0.0,0,99.99,0.0
15436731,1766326447394495,0,0,-0.001384,7.7e-05,1.004514,-0.008133,-0.021164,0.053375,0.0,0.0,0.0,25.23,-0.0,0.07,180.0,0.0,0.0,0.0,0.0,0,99.99,0.0
15473730,1766326447431494,0,0,-0.000651,-4.6e-05,1.004331,0.030014,-0.028793,0.022858,0.0,0.0,0.0,25.23,-0.02,0.04,180.0,0.0,0.0,0.0,0.0,0,99.99,0.0
15497731,1766326447455495,0,0,-0.000346,0.000199,1.003782,0.030014,-0.021164,0.038116,0.0,0.0,0.0,25.22,0.02,0.04,180.0,0.0,0.0,0.0,0.0,0,99.99,0.0
15542730,1766326447500494,0,0,8.1e-05,-0.000229,1.003965,0.007126,-0.021164,-0.030548,0.0,0.0,0.0,25.22,-0.01,-0.01,180.0,0.0,0.0,0.0,0.0,0,99.99,0.0
15571730,1766326447529494,0,0,-0.000285,0.000199,1.003232,0.014755,-0.005905,0.015228,0.0,0.0,0.0,25.22,0.01,0.02,180.0,0.0,0.0,0.0,0.0,0,99.99,0.0
15601731,1766326447559495,0,0,-0.001018,0.000321,1.003599,-0.000503,-0.021164,-3.1e-05,0.0,0.0,0.0,25.23,0.02,0.06,180.0,0.0,0.0,0.0,0.0,0,99.99,0.0
15630730,1766326447588494,0,0,-0.000224,1.6e-05,1.003171,-0.008133,-0.036423,-0.00766,0.0,0.0,0.0,25.22,0.0,0.01,180.0,0.0,0.0,0.0,0.0,0,99.99,0.0
15659737,1766326447617501,0,0,0.000203,0.000809,1.003843,-0.015762,-0.044052,-0.030548,0.0,0.0,0.0,25.23,0.03,-0.0,180.0,0.0,0.0,0.0,0.0,0,99.99,0.0
15689740,1766326447647504,0,0,0.000203,0.000748,1.003843,-0.000503,-0.028793,-0.00766,0.0,0.0,0.0,25.23,0.04,-0.02,180.0,0.0,0.0,0.0,0.0,0,99.99,0.0
15719730,1766326447677494,0,0,-0.000468,0.000992,1.003965,0.007126,-0.028793,0.007599,0.0,0.0,0.0,25.23,0.06,0.02,180.0,0.0,0.0,0.0,0.0,0,99.99,0.0
15750730,1766326447708494,0,0,-0.00059,0.000504,1.003294,-0.015762,-0.021164,-0.030548,0.0,0.0,0.0,25.23,0.02,0.04,180.0,0.0,0.0,0.0,0.0,0,99.99,0.0
15779730,1766326447737494,0,0,-0.000651,0.000443,1.002988,0.014755,-0.013535,-0.045807,0.0,0.0,0.0,25.23,0.01,0.03,180.0,0.0,0.0,0.0,0.0,0,99.99,0.0
15809733,1766326447767497,0,0,-0.000285,0.000504,1.002622,-0.015762,-0.051682,-0.015289,0.0,0.0,0.0,25.21,0.02,-0.0,180.0,0.0,0.0,0.0,0.0,0,99.99,0.0
15841730,1766326447799494,0,0,-0.00059,0.000687,1.002927,-0.008133,-0.07457,-0.015289,0.0,0.0,0.0,25.22,0.04,0.04,180.0,0.0,0.0,0.0,0.0,0,99.99,0.0
15869732,1766326447827496,0,0,2e-05,0.000504,1.002683,0.014755,-0.028793,-0.030548,0.0,0.0,0.0,25.23,0.03,-0.01,180.0,0.0,0.0,0.0,0.0,0,99.99,0.0
15899731,1766326447857495,0,0,8.1e-05,0.00026,1.003477,0.007126,-0.021164,-0.022919,0.0,0.0,0.0,25.22,0.02,-0.0,180.0,0.0,0.0,0.0,0.0,0,99.99,0.0
15929980,1766326447887744,0,0,0.000142,-0.000656,1.003599,0.014755,-0.021164,-0.00766,0.0,0.0,0.0,25.22,-0.05,-0.01,180.0,0.0,0.0,0.0,0.0,0,99.99,0.0
15971730,1766326447929494,0,0,-0.000163,-0.000351,1.002988,0.007126,-0.013535,0.030487,0.0,0.0,0.0,25.22,-0.02,0.01,180.0,0.0,0.0,0.0,0.0,0,99.99,0.0
16002730,1766326447960494,0,0,-0.000407,-0.000107,1.002683,0.007126,-0.028793,-0.015289,0.0,0.0,0.0,25.21,-0.01,0.01,180.0,0.0,0.0,0.0,0.0,0,99.99,0.0
16032730,1766326447990494,0,0,-0.000407,0.000321,1.004697,0.007126,-0.013535,0.007599,0.0,0.0,0.0,25.22,0.03,0.02,180.0,0.0,0.0,0.0,0.0,0,99.99,0.0
16064737,1766326448022501,0,0,-0.001323,0.000504,1.003416,-0.008133,-0.028793,0.030487,0.0,0.0,0.0,25.22,0.04,0.09,180.0,0.0,0.0,0.0,0.0,0,99.99,0.0
16091738,1766326448049502,0,0,-0.001567,0.00087,1.003782,-0.008133,-0.013535,-3.1e-05,0.0,0.0,0.0,25.23,0.04,0.08,180.0,0.0,0.0,0.0,0.0,0,99.99,0.0
16119730,1766326448077494,0,0,-0.000407,0.000687,1.003171,0.007126,-0.028793,-0.022919,0.0,0.0,0.0,25.22,0.05,0.02,180.0,0.0,0.0,0.0,0.0,0,99.99,0.0
16152730,1766326448110494,0,0,-0.000651,0.000748,1.00311,-0.008133,-0.028793,-3.1e-05,0.0,0.0,0.0,25.23,0.04,0.04,180.0,0.0,0.0,0.0,0.0,0,99.99,0.0
16182731,1766326448140495,0,0,-0.000529,7.7e-05,1.004026,-0.015762,-0.051682,0.022858,0.0,0.0,0.0,25.24,0.01,0.04,180.0,0.0,0.0,0.0,0.0,0,99.99,0.0
16212734,1766326448170498,0,0,-0.00059,0.000321,1.003599,0.007126,-0.021164,-0.00766,0.0,0.0,0.0,25.23,0.03,0.04,180.0,0.0,0.0,0.0,0.0,0,99.99,0.0
16241731,1766326448199495,0,0,-4.1e-05,1.6e-05,1.002012,-0.008133,-0.051682,0.022858,0.0,0.0,0.0,25.23,-0.0,0.0,180.0,0.0,0.0,0.0,0.0,0,99.99,0.0
16272731,1766326448230495,0,0,-0.000285,0.000382,1.004026,-0.023392,-0.044052,-0.030548,0.0,0.0,0.0,25.23,0.02,0.01,180.0,0.0,0.0,0.0,0.0,0,99.99,0.0
16303980,1766326448261744,0,0,-0.000713,0.000138,1.004087,-0.023392,-0.051682,-0.00766,0.0,0.0,0.0,25.22,0.01,0.04,180.0,0.0,0.0,0.0,0.0,0,99.99,0.0
16334731,1766326448292495,0,0,-0.00059,0.000992,1.002866,-0.031021,-0.021164,0.022858,0.0,0.0,0.0,25.23,0.04,0.03,180.0,0.0,0.0,0.0,0.0,0,99.99,0.0
16363730,1766326448321494,0,0,-0.00059,0.001236,1.003477,-0.008133,-0.036423,0.022858,0.0,0.0,0.0,25.23,0.07,0.05,180.0,0.0,0.0,0.0,0.0,0,99.99,0.0
16404730,1766326448362494,0,0,2e-05,0.000809,1.003232,-0.008133,-0.028793,0.038116,0.0,0.0,0.0,25.23,0.05,-0.01,180.0,0.0,0.0,0.0,0.0,0,99.99,0.0
16434731,1766326448392495,0,0,8.1e-05,0.000321,1.003843,-0.031021,-0.021164,0.038116,0.0,0.0,0.0,25.23,0.04,-0.01,180.0,0.0,0.0,0.0,0.0,0,99.99,0.0
16463731,1766326448421495,0,0,0.000203,-0.000229,1.004026,-0.04628,-0.044052,0.045746,0.0,0.0,0.0,25.23,-0.01,-0.01,180.0,0.0,0.0,0.0,0.0,0,99.99,0.0
16493731,1766326448451495,0,0,0.000874,-0.000351,1.003477,-0.015762,-0.013535,0.015228,0.0,0.0,0.0,25.23,-0.02,-0.05,180.0,0.0,0.0,0.0,0.0,0,99.99,0.0
16524730,1766326448482494,0,0,2e-05,-0.000656,1.004148,0.022385,-0.028793,0.022858,0.0,0.0,0.0,25.22,-0.04,0.0,180.0,0.0,0.0,0.0,0.0,0,99.99,0.0
16555731,1766326448513495,0,0,0.000142,0.000443,1.00427,0.007126,-0.013535,0.007599,0.0,0.0,0.0,25.23,0.03,-0.02,180.0,0.0,0.0,0.0,0.0,0,99.99,0.0
16584730,1766326448542494,0,0,-4.1e-05,0.000504,1.004209,0.030014,0.009354,0.061005,0.0,0.0,0.0,25.23,0.03,-0.01,180.0,0.0,0.0,0.0,0.0,0,99.99,0.0
16616731,1766326448574495,0,0,0.000142,0.000565,1.003599,-0.000503,-0.059311,-3.1e-05,0.0,0.0,0.0,25.23,0.04,-0.01,180.0,0.0,0.0,0.0,0.0,0,99.99,0.0
16643731,1766326448601495,0,0,-0.000224,0.000199,1.002988,0.014755,-0.059311,0.007599,0.0,0.0,0.0,25.23,-0.01,0.01,180.0,0.0,0.0,0.0,0.0,0,99.99,0.0
16674731,1766326448632495,0,0,-0.000529,1.6e-05,1.003843,0.022385,-0.044052,-3.1e-05,0.0,0.0,0.0,25.22,0.02,0.05,180.0,0.0,0.0,0.0,0.0,0,99.99,0.0
16704730,1766326448662494,0,0,-0.000713,0.000138,1.00366,0.022385,-0.021164,-0.038177,0.0,0.0,0.0,25.22,-0.01,0.05,180.0,0.0,0.0,0.0,0.0,0,99.99,0.0
16734730,1766326448692494,0,0,-0.001018,0.000443,1.002866,0.037643,-0.013535,-0.00766,0.0,0.0,0.0,25.23,0.03,0.05,180.0,0.0,0.0,0.0,0.0,0,99.99,0.0
16763732,1766326448721496,0,0,2e-05,1.6e-05,1.003049,0.022385,-0.021164,0.045746,0.0,0.0,0.0,25.23,-0.02,-0.01,180.0,0.0,0.0,0.0,0.0,0,99.99,0.0
16793732,1766326448751496,0,0,0.000508,0.000626,1.003965,0.014755,-0.013535,0.030487,0.0,0.0,0.0,25.23,0.04,-0.02,180.0,0.0,0.0,0.0,0.0,0,99.99,0.0
16816733,1766326448774497,0,0,0.000142,0.000382,1.004209,-0.015762,-0.028793,0.015228,0.0,0.0,0.0,25.23,0.02,-0.02,180.0,0.0,0.0,0.0,0.0,0,99.99,0.0
16850730,1766326448808494,0,0,-0.000468,-0.000107,1.004026,-0.031021,-0.059311,0.030487,0.0,0.0,0.0,25.23,-0.01,0.02,180.0,0.0,0.0,0.0,0.0,0,99.99,0.0
16891730,1766326448849494,0,0,-0.000407,7.7e-05,1.003904,-0.008133,-0.021164,0.068634,0.0,0.0,0.0,25.22,0.01,0.02,180.0,0.0,0.0,0.0,0.0,0,99.99,0.0
16921730,1766326448879494,0,0,-0.000407,0.000321,1.005186,-0.000503,-0.021164,0.015228,0.0,0.0,0.0,25.23,0.01,0.02,180.0,0.0,0.0,0.0,0.0,0,99.99,0.0
16950733,1766326448908497,0,0,0.000447,0.000138,1.004148,-0.023392,-0.005905,-0.015289,0.0,0.0,0.0,25.23,0.02,-0.04,180.0,0.0,0.0,0.0,0.0,0,99.99,0.0
16979730,1766326448937494,0,0,-0.000102,0.001236,1.003294,-0.023392,-0.013535,-0.045807,0.0,0.0,0.0,25.24,0.07,-0.01,180.0,0.0,0.0,0.0,0.0,0,99.99,0.0
17010730,1766326448968494,0,0,0.000203,0.001053,1.003416,-0.023392,-0.036423,-0.022919,0.0,0.0,0.0,25.23,0.06,-0.02,180.0,0.0,0.0,0.0,0.0,0,99.99,0.0
17039738,1766326448997502,0,0,-0.000529,0.000809,1.004392,-0.023392,-0.021164,-0.022919,0.0,0.0,0.0,25.24,0.04,0.03,180.0,0.0,0.0,0.0,0.0,0,99.99,0.0
17069731,1766326449027495,0,0,-0.000346,0.001358,1.003904,-0.015762,-0.021164,-0.068695,0.0,0.0,0.0,25.24,0.08,0.02,180.0,0.0,0.0,0.0,0.0,0,99.99,0.0
17100731,1766326449058495,0,0,-0.000713,0.000931,1.002866,0.022385,-0.005905,-0.00766,0.0,0.0,0.0,25.23,0.05,0.05,180.0,0.0,0.0,0.0,0.0,0,99.99,0.0
17131731,1766326449089495,0,0,-0.000529,0.000565,1.003232,-0.000503,-0.028793,-3.1e-05,0.0,0.0,0.0,25.23,0.03,0.03,180.0,0.0,0.0,0.0,0.0,0,99.99,0.0
17160730,1766326449118494,0,0,-0.000713,0.000443,1.003477,0.014755,-0.028793,0.015228,0.0,0.0,0.0,25.23,0.02,0.03,180.0,0.0,0.0,0.0,0.0,0,99.99,0.0
17189732,1766326449147496,0,0,-0.000713,0.000565,1.003538,0.045273,-0.036423,0.007599,0.0,0.0,0.0,25.23,0.04,0.03,180.0,0.0,0.0,0.0,0.0,0,99.99,0.0
17219734,1766326449177498,0,0,-0.000529,0.000626,1.002744,0.022385,-0.059311,-0.015289,0.0,0.0,0.0,25.24,0.02,0.04,180.0,0.0,0.0,0.0,0.0,0,99.99,0.0
17249731,1766326449207495,0,0,-0.000346,0.000809,1.002622,0.030014,-0.036423,0.015228,0.0,0.0,0.0,25.23,0.03,0.01,180.0,0.0,0.0,0.0,0.0,0,99.99,0.0
17279731,1766326449237495,0,0,-0.000102,0.000809,1.002683,0.022385,-0.021164,0.022858,0.0,0.0,0.0,25.24,0.06,0.01,180.0,0.0,0.0,0.0,0.0,0,99.99,0.0
17321730,1766326449279494,0,0,-0.000529,0.000382,1.003416,0.014755,-0.005905,-0.045807,0.0,0.0,0.0,25.23,0.01,0.02,180.0,0.0,0.0,0.0,0.0,0,99.99,0.0
17352731,1766326449310495,0,0,2e-05,0.000321,1.003049,-0.008133,0.001724,-0.015289,0.0,0.0,0.0,25.23,0.01,-0.0,180.0,0.0,0.0,0.0,0.0,0,99.99,0.0
17382731,1766326449340495,0,0,-0.00059,7.7e-05,1.002622,-0.015762,-0.036423,-3.1e-05,0.0,0.0,0.0,25.23,-0.0,0.04,180.0,0.0,0.0,0.0,0.0,0,99.99,0.0
17414730,1766326449372494,0,0,0.000264,0.000626,1.003171,-0.008133,-0.028793,-0.022919,0.0,0.0,0.0,25.23,0.05,-0.01,180.0,0.0,0.0,0.0,0.0,0,99.99,0.0
17441980,1766326449399744,0,0,0.000264,0.000382,1.003171,-0.084427,-0.005905,-0.022919,0.0,0.0,0.0,25.23,0.0,-0.01,180.0,0.0,0.0,0.0,0.0,0,99.99,0.0
17470731,1766326449428495,0,0,-0.000468,0.000382,1.003294,-0.023392,-0.028793,0.022858,0.0,0.0,0.0,25.23,0.02,0.03,180.0,0.0,0.0,0.0,0.0,0,99.99,0.0
17507738,1766326449465502,0,0,-4.1e-05,0.001114,1.00366,-0.04628,-0.028793,-0.00766,0.0,0.0,0.0,25.24,0.05,-0.0,180.0,0.0,0.0,0.0,0.0,0,99.99,0.0
17536731,1766326449494495,0,0,0.000447,0.000443,1.002561,-0.015762,-0.036423,0.022858,0.0,0.0,0.0,25.24,0.04,-0.03,180.0,0.0,0.0,0.0,0.0,0,99.99,0.0
17566730,1766326449524494,0,0,-0.000407,0.000809,1.00366,-0.023392,-0.028793,0.022858,0.0,0.0,0.0,25.24,0.04,0.01,180.0,0.0,0.0,0.0,0.0,0,99.99,0.0
17595731,1766326449553495,0,0,-4.1e-05,0.000504,1.003416,-0.000503,-0.036423,-0.015289,0.0,0.0,0.0,25.23,0.04,0.02,180.0,0.0,0.0,0.0,0.0,0,99.99,0.0
17626731,1766326449584495,0,0,0.000508,0.000931,1.003416,0.007126,-0.021164,0.007599,0.0,0.0,0.0,25.24,0.05,-0.03,180.0,0.0,0.0,0.0,0.0,0,99.99,0.0
17657734,1766326449615498,0,0,0.000325,-4.6e-05,1.002866,-0.000503,-0.044052,-0.015289,0.0,0.0,0.0,25.23,0.0,-0.01,180.0,0.0,0.0,0.0,0.0,0,99.99,0.0
17687730,1766326449645494,0,0,2e-05,-0.000168,1.003782,-0.008133,-0.036423,-0.022919,0.0,0.0,0.0,25.23,-0.01,-0.0,180.0,0.0,0.0,0.0,0.0,0,99.99,0.0
17715731,1766326449673495,0,0,0.000386,0.000748,1.004331,-0.015762,-0.028793,0.007599,0.0,0.0,0.0,25.23,0.04,-0.02,180.0,0.0,0.0,0.0,0.0,0,99.99,0.0
17756734,1766326449714498,0,0,8.1e-05,0.000382,1.004087,-0.015762,-0.044052,0.015228,0.0,0.0,0.0,25.23,0.02,0.01,180.0,0.0,0.0,0.0,0.0,0,99.99,0.0
17786731,1766326449744495,0,0,8.1e-05,0.000809,1.003904,-0.000503,-0.059311,0.007599,0.0,0.0,0.0,25.23,0.05,0.0,180.0,0.0,0.0,0.0,0.0,0,99.99,0.0
17816738,1766326449774502,0,0,0.000264,0.000443,1.003416,0.007126,-0.036423,0.030487,0.0,0.0,0.0,25.23,0.01,-0.0,180.0,0.0,0.0,0.0,0.0,0,99.99,0.0
17845731,1766326449803495,0,0,-0.000163,0.000443,1.002927,-0.000503,-0.036423,-3.1e-05,0.0,0.0,0.0,25.22,0.01,0.01,180.0,0.0,0.0,0.0,0.0,0,99.99,0.0
17901734,1766326449859498,0,0,0.000264,-0.000107,1.002073,-0.03865,-0.028793,-0.022919,0.0,0.0,0.0,25.24,-0.0,-0.03,180.0,0.0,0.0,0.0,0.0,0,99.99,0.0
17930731,1766326449888495,0,0,0.000508,0.000443,1.004087,-0.031021,-0.044052,-3.1e-05,0.0,0.0,0.0,25.24,0.04,-0.01,180.0,0.0,0.0,0.0,0.0,0,99.99,0.0
17958730,1766326449916494,0,0,0.000569,0.000992,1.004392,0.007126,-0.044052,0.015228,0.0,0.0,0.0,25.24,0.06,-0.03,180.0,0.0,0.0,0.0,0.0,0,99.99,0.0
17989731,1766326449947495,0,0,0.000447,0.001114,1.004331,-0.000503,-0.013535,-0.030548,0.0,0.0,0.0,25.24,0.06,-0.03,180.0,0.0,0.0,0.0,0.0,0,99.99,0.0
18015731,1766326449973495,0,0,-0.000346,0.000504,1.003049,-0.000503,-0.013535,0.015228,0.0,0.0,0.0,25.24,0.02,0.02,180.0,0.0,0.0,0.0,0.0,0,99.99,0.0
18045730,1766326450003494,0,0,-0.000163,0.00087,1.004148,-0.008133,-0.059311,-3.1e-05,0.0,0.0,0.0,25.24,0.05,0.0,180.0,0.0,0.0,0.0,0.0,0,99.99,0.0
18074730,1766326450032494,0,0,-0.000224,0.000443,1.004148,-0.023392,-0.036423,0.015228,0.0,0.0,0.0,25.24,0.03,0.0,180.0,0.0,0.0,0.0,0.0,0,99.99,0.0
18103980,1766326450061744,0,0,-4.1e-05,0.00026,1.004392,0.030014,-0.059311,0.007599,0.0,0.0,0.0,25.24,0.02,0.0,180.0,0.0,0.0,0.0,0.0,0,99.99,0.0
18131738,1766326450089502,0,0,0.000142,0.000443,1.003843,0.007126,-0.051682,0.038116,0.0,0.0,0.0,25.23,0.04,-0.0,180.0,0.0,0.0,0.0,0.0,0,99.99,0.0
18161734,1766326450119498,0,0,8.1e-05,-0.000351,1.003843,0.037643,-0.044052,0.030487,0.0,0.0,0.0,25.23,-0.02,0.02,180.0,0.0,0.0,0.0,0.0,0,99.99,0.0
18192731,1766326450150495,0,0,-0.000102,0.000443,1.004087,0.014755,-0.059311,0.015228,0.0,0.0,0.0,25.23,0.04,-0.01,180.0,0.0,0.0,0.0,0.0,0,99.99,0.0
18235733,1766326450193497,0,0,-0.000346,0.00087,1.002927,-0.000503,-0.036423,0.015228,0.0,0.0,0.0,25.24,0.04,0.01,180.0,0.0,0.0,0.0,0.0,0,99.99,0.0
18264731,1766326450222495,0,0,8.1e-05,0.000748,1.002622,-0.008133,-0.021164,0.007599,0.0,0.0,0.0,25.24,0.04,-0.0,180.0,0.0,0.0,0.0,0.0,0,99.99,0.0
18294733,1766326450252497,0,0,0.000142,0.00026,1.003843,-0.023392,-0.013535,-0.015289,0.0,0.0,0.0,25.24,0.0,-0.02,180.0,0.0,0.0,0.0,0.0,0,99.99,0.0
18324731,1766326450282495,0,0,-0.000468,0.000626,1.003538,-0.023392,-0.021164,-0.00766,0.0,0.0,0.0,25.24,0.03,0.02,180.0,0.0,0.0,0.0,0.0,0,99.99,0.0
18352730,1766326450310494,0,0,-0.000468,0.00026,1.003904,-0.03865,-0.059311,0.022858,0.0,0.0,0.0,25.24,0.02,0.03,180.0,0.0,0.0,0.0,0.0,0,99.99,0.0
18381731,1766326450339495,0,0,0.000203,-0.000412,1.002866,-0.053909,-0.051682,0.015228,0.0,0.0,0.0,25.24,-0.02,-0.01,180.0,0.0,0.0,0.0,0.0,0,99.99,0.0
18411730,1766326450369494,0,0,-0.00059,-0.000412,1.003782,-0.015762,-0.013535,0.053375,0.0,0.0,0.0,25.23,-0.02,0.04,180.0,0.0,0.0,0.0,0.0,0,99.99,0.0
18441730,1766326450399494,0,0,-0.00059,0.00026,1.003904,-0.008133,-0.013535,0.007599,0.0,0.0,0.0,25.24,0.0,0.02,180.0,0.0,0.0,0.0,0.0,0,99.99,0.0
18469731,1766326450427495,0,0,0.000264,7.7e-05,1.002927,-0.000503,-0.013535,0.038116,0.0,0.0,0.0,25.24,0.02,-0.02,180.0,0.0,0.0,0.0,0.0,0,99.99,0.0
18497980,1766326450455744,0,0,-0.000102,0.000504,1.002317,-0.023392,-0.021164,0.015228,0.0,0.0,0.0,25.24,0.03,0.01,180.0,0.0,0.0,0.0,0.0,0,99.99,0.0
18529739,1766326450487503,0,0,-0.000285,0.001358,1.002927,-0.008133,-0.036423,-0.022919,0.0,0.0,0.0,25.24,0.1,0.02,180.0,0.0,0.0,0.0,0.0,0,99.99,0.0
18556730,1766326450514494,0,0,-0.000224,0.000443,1.002378,0.014755,-0.07457,-0.030548,0.0,0.0,0.0,25.24,0.02,0.01,180.0,0.0,0.0,0.0,0.0,0,99.99,0.0
18578730,1766326450536494,0,0,0.000203,0.000565,1.002317,-0.015762,-0.028793,-0.00766,0.0,0.0,0.0,25.24,0.03,-0.0,180.0,0.0,0.0,0.0,0.0,0,99.99,0.0
18607731,1766326450565495,0,0,-4.1e-05,0.000321,1.002561,-0.000503,-0.021164,-0.00766,0.0,0.0,0.0,25.24,0.02,-0.01,180.0,0.0,0.0,0.0,0.0,0,99.99,0.0
18638730,1766326450596494,0,0,2e-05,0.000687,1.002683,0.007126,-0.036423,-0.038177,0.0,0.0,0.0,25.23,0.04,-0.0,180.0,0.0,0.0,0.0,0.0,0,99.99,0.0
18676733,1766326450634497,0,0,0.000325,0.000748,1.004087,-0.000503,-0.036423,-0.015289,0.0,0.0,0.0,25.24,0.04,-0.02,180.0,0.0,0.0,0.0,0.0,0,99.99,0.0
18705731,1766326450663495,0,0,8.1e-05,1.6e-05,1.002866,-0.031021,-0.051682,-3.1e-05,0.0,0.0,0.0,25.24,0.02,-0.02,180.0,0.0,0.0,0.0,0.0,0,99.99,0.0
18734732,1766326450692496,0,0,0.000325,-0.000656,1.004209,-0.000503,0.001724,-0.022919,0.0,0.0,0.0,25.24,-0.03,-0.02,180.0,0.0,0.0,0.0,0.0,0,99.99,0.0
18764731,1766326450722495,0,0,-0.000224,-4.6e-05,1.003477,-0.031021,-0.005905,-0.022919,0.0,0.0,0.0,25.23,-0.01,0.01,180.0,0.0,0.0,0.0,0.0,0,99.99,0.0
18792731,1766326450750495,0,0,0.000447,-4.6e-05,1.003477,-0.015762,-0.028793,-0.022919,0.0,0.0,0.0,25.23,0.0,-0.03,180.0,0.0,0.0,0.0,0.0,0,99.99,0.0
18821730,1766326450779494,0,0,0.000508,0.00026,1.004148,-0.000503,-0.036423,-0.015289,0.0,0.0,0.0,25.23,0.03,-0.03,180.0,0.0,0.0,0.0,0.0,0,99.99,0.0
18851730,1766326450809494,0,0,0.000386,0.000565,1.003538,-0.03865,-0.036423,-0.00766,0.0,0.0,0.0,25.24,0.02,-0.01,180.0,0.0,0.0,0.0,0.0,0,99.99,0.0
18885730,1766326450843494,0,0,0.000203,0.000626,1.003355,-0.008133,-0.028793,-0.022919,0.0,0.0,0.0,25.23,0.04,-0.0,180.0,0.0,0.0,0.0,0.0,0,99.99,0.0
18914730,1766326450872494,0,0,0.000386,7.7e-05,1.004514,-0.015762,-0.021164,-0.068695,0.0,0.0,0.0,25.23,0.0,-0.02,180.0,0.0,0.0,0.0,0.0,0,99.99,0.0
18942731,1766326450900495,0,0,-0.000285,-0.00029,1.00366,-0.015762,-0.028793,-0.076324,0.0,0.0,0.0,25.23,-0.02,0.02,180.0,0.0,0.0,0.0,0.0,0,99.99,0.0
18974732,1766326450932496,0,0,0.000325,0.000382,1.003721,-0.015762,-0.021164,-0.00766,0.0,0.0,0.0,25.23,0.02,-0.02,180.0,0.0,0.0,0.0,0.0,0,99.99,0.0
19000731,1766326450958495,0,0,-0.000896,0.000626,1.002805,0.007126,-0.028793,0.007599,0.0,0.0,0.0,25.23,0.05,0.05,180.0,0.0,0.0,0.0,0.0,0,99.99,0.0
19030730,1766326450988494,0,0,-0.000163,0.000687,1.001768,-0.000503,-0.036423,-0.015289,0.0,0.0,0.0,25.23,0.03,0.02,180.0,0.0,0.0,0.0,0.0,0,99.99,0.0
19058731,1766326451016495,0,0,0.000203,0.00026,1.003171,-0.015762,-0.021164,-0.015289,0.0,0.0,0.0,25.23,0.01,-0.02,180.0,0.0,0.0,0.0,0.0,0,99.99,0.0
19099730,1766326451057494,0,0,0.000203,-4.6e-05,1.003782,0.014755,-0.028793,-0.030548,0.0,0.0,0.0,25.23,0.01,-0.02,180.0,0.0,0.0,0.0,0.0,0,99.99,0.0
19128731,1766326451086495,0,0,-0.000285,-0.000107,1.003782,-0.008133,-0.021164,-0.00766,0.0,0.0,0.0,25.24,-0.01,0.03,180.0,0.0,0.0,0.0,0.0,0,99.99,0.0
19158730,1766326451116494,0,0,-0.000102,-0.000168,1.004148,-0.015762,0.001724,0.022858,0.0,0.0,0.0,25.24,-0.01,0.02,180.0,0.0,0.0,0.0,0.0,0,99.99,0.0
19187730,1766326451145494,0,0,8.1e-05,0.000199,1.003843,-0.015762,-0.051682,0.030487,0.0,0.0,0.0,25.24,0.01,-0.01,180.0,0.0,0.0,0.0,0.0,0,99.99,0.0
19216730,1766326451174494,0,0,-0.000224,-4.6e-05,1.002561,-0.015762,-0.036423,-0.015289,0.0,0.0,0.0,25.24,-0.0,0.02,180.0,0.0,0.0,0.0,0.0,0,99.99,0.0
19245730,1766326451203494,0,0,-0.000835,-0.000473,1.002683,0.022385,-0.005905,-0.015289,0.0,0.0,0.0,25.23,-0.02,0.05,180.0,0.0,0.0,0.0,0.0,0,99.99,0.0
19274731,1766326451232495,0,0,-0.000713,-0.000412,1.002317,-0.031021,-0.059311,-0.00766,0.0,0.0,0.0,25.23,-0.03,0.04,180.0,0.0,0.0,0.0,0.0,0,99.99,0.0
19303738,1766326451261502,0,0,-0.000957,-0.000168,1.002561,-0.031021,-0.044052,-0.00766,0.0,0.0,0.0,25.24,-0.0,0.05,180.0,0.0,0.0,0.0,0.0,0,99.99,0.0
19331730,1766326451289494,0,0,-0.000468,-0.000351,1.003599,0.007126,-0.013535,-0.015289,0.0,0.0,0.0,25.24,-0.02,0.04,180.0,0.0,0.0,0.0,0.0,0,99.99,0.0
19361731,1766326451319495,0,0,-0.000102,0.000382,1.003782,-0.008133,-0.028793,0.007599,0.0,0.0,0.0,25.24,0.04,0.01,180.0,0.0,0.0,0.0,0.0,0,99.99,0.0
19390730,1766326451348494,0,0,0.000447,0.000382,1.003416,0.037643,-0.021164,0.038116,0.0,0.0,0.0,25.24,0.0,-0.03,180.0,0.0,0.0,0.0,0.0,0,99.99,0.0
19419730,1766326451377494,0,0,0.000203,0.00026,1.003355,-0.023392,-0.044052,0.053375,0.0,0.0,0.0,25.23,-0.0,-0.02,180.0,0.0,0.0,0.0,0.0,0,99.99,0.0
19447738,1766326451405502,0,0,0.000508,0.000565,1.003477,-0.015762,-0.021164,0.061005,0.0,0.0,0.0,25.23,0.01,-0.03,180.0,0.0,0.0,0.0,0.0,0,99.99,0.0
19477731,1766326451435495,0,0,0.000142,0.000504,1.0025,-0.023392,-0.013535,0.015228,0.0,0.0,0.0,25.24,0.04,-0.01,180.0,0.0,0.0,0.0,0.0,0,99.99,0.0
19508730,1766326451466494,0,0,-0.000468,0.001175,1.001829,-0.015762,-0.028793,0.038116,0.0,0.0,0.0,25.23,0.06,0.03,180.0,0.0,0.0,0.0,0.0,0,99.99,0.0
19547731,1766326451505495,0,0,-0.000102,0.000687,1.004331,-0.015762,-0.044052,0.015228,0.0,0.0,0.0,25.24,0.04,0.02,180.0,0.0,0.0,0.0,0.0,0,99.99,0.0
19581730,1766326451539494,0,0,-0.000163,0.000504,1.00366,0.007126,-0.028793,0.015228,0.0,0.0,0.0,25.24,0.03,0.01,180.0,0.0,0.0,0.0,0.0,0,99.99,0.0
19610980,1766326451568744,0,0,0.000386,0.001114,1.002317,-0.008133,-0.036423,-0.015289,0.0,0.0,0.0,25.24,0.05,-0.04,180.0,0.0,0.0,0.0,0.0,0,99.99,0.0
19640731,1766326451598495,0,0,2e-05,0.000687,1.001951,-0.000503,-0.036423,0.015228,0.0,0.0,0.0,25.23,0.04,0.02,180.0,0.0,0.0,0.0,0.0,0,99.99,0.0
19670730,1766326451628494,0,0,-4.1e-05,0.000626,1.00311,-0.008133,-0.044052,0.007599,0.0,0.0,0.0,25.23,0.03,0.01,180.0,0.0,0.0,0.0,0.0,0,99.99,0.0
19698730,1766326451656494,0,0,-4.1e-05,0.000321,1.003355,-0.000503,-0.028793,-3.1e-05,0.0,0.0,0.0,25.23,0.01,0.01,180.0,0.0,0.0,0.0,0.0,0,99.99,0.0
19726730,1766326451684494,0,0,0.000142,0.000687,1.004209,-0.008133,-0.044052,0.015228,0.0,0.0,0.0,25.23,0.05,-0.01,180.0,0.0,0.0,0.0,0.0,0,99.99,0.0
19756730,1766326451714494,0,0,0.000447,1.6e-05,1.003599,-0.008133,-0.044052,0.022858,0.0,0.0,0.0,25.23,-0.01,-0.04,180.0,0.0,0.0,0.0,0.0,0,99.99,0.0
19785731,1766326451743495,0,0,0.000203,0.000687,1.00366,-0.000503,-0.07457,0.038116,0.0,0.0,0.0,25.24,0.04,-0.01,180.0,0.0,0.0,0.0,0.0,0,99.99,0.0
19814732,1766326451772496,0,0,0.000874,0.00026,1.003538,0.007126,-0.021164,-3.1e-05,0.0,0.0,0.0,25.24,0.01,-0.06,180.0,0.0,0.0,0.0,0.0,0,99.99,0.0
19842730,1766326451800494,0,0,0.000752,0.000321,1.002744,0.014755,-0.036423,0.038116,0.0,0.0,0.0,25.24,0.03,-0.04,180.0,0.0,0.0,0.0,0.0,0,99.99,0.0
19872730,1766326451830494,0,0,0.000447,0.000321,1.002805,0.014755,0.001724,0.022858,0.0,0.0,0.0,25.24,0.02,-0.04,180.0,0.0,0.0,0.0,0.0,0,99.99,0.0
19901730,1766326451859494,0,0,0.000203,0.000138,1.002805,-0.008133,-0.013535,0.015228,0.0,0.0,0.0,25.24,-0.0,-0.01,180.0,0.0,0.0,0.0,0.0,0,99.99,0.0
19929734,1766326451887498,0,0,8.1e-05,-0.000107,1.002744,-0.023392,-0.005905,0.030487,0.0,0.0,0.0,25.24,-0.03,0.0,180.0,0.0,0.0,0.0,0.0,0,99.99,0.0
19971730,1766326451929494,0,0,0.000203,0.00026,1.002744,0.007126,-0.013535,-0.00766,0.0,0.0,0.0,25.24,0.02,-0.01,180.0,0.0,0.0,0.0,0.0,0,99.99,0.0
19999730,1766326451957494,0,0,0.000325,0.000626,1.002927,-0.015762,-0.028793,0.015228,0.0,0.0,0.0,25.24,0.03,-0.01,180.0,0.0,0.0,0.0,0.0,0,99.99,0.0
20029734,1766326451987498,0,0,0.000325,0.000321,1.002073,0.014755,-0.036423,-0.030548,0.0,0.0,0.0,25.24,0.01,-0.02,180.0,0.0,0.0,0.0,0.0,0,99.99,0.0
20051730,1766326452009494,0,0,-0.000102,0.000199,1.003049,-0.000503,-0.013535,-0.00766,0.0,0.0,0.0,25.24,0.01,0.02,180.0,0.0,0.0,0.0,0.0,0,99.99,0.0
20080731,1766326452038495,0,0,0.000325,-0.000107,1.0025,-0.008133,-0.021164,-0.038177,0.0,0.0,0.0,25.23,-0.01,-0.02,180.0,0.0,0.0,0.0,0.0,0,99.99,0.0
20109731,1766326452067495,0,0,0.000325,1.6e-05,1.002805,-0.04628,-0.044052,-0.022919,0.0,0.0,0.0,25.23,-0.0,-0.03,180.0,0.0,0.0,0.0,0.0,0,99.99,0.0
20138730,1766326452096494,0,0,0.000935,0.00087,1.003049,-0.031021,-0.06694,-0.015289,0.0,0.0,0.0,25.23,0.05,-0.05,180.0,0.0,0.0,0.0,0.0,0,99.99,0.0
20170730,1766326452128494,0,0,0.000996,0.000382,1.003355,-0.04628,-0.021164,-0.00766,0.0,0.0,0.0,25.23,0.02,-0.06,180.0,0.0,0.0,0.0,0.0,0,99.99,0.0
20196732,1766326452154496,0,0,0.000508,-0.000229,1.003232,-0.015762,-0.005905,-3.1e-05,0.0,0.0,0.0,25.24,-0.01,-0.03,180.0,0.0,0.0,0.0,0.0,0,99.99,0.0
20224731,1766326452182495,0,0,0.000264,-0.000229,1.002134,-0.015762,-0.013535,0.015228,0.0,0.0,0.0,25.24,-0.01,-0.03,180.0,0.0,0.0,0.0,0.0,0,99.99,0.0
20253730,1766326452211494,0,0,2e-05,0.000443,1.001768,-0.03865,0.009354,-3.1e-05,0.0,0.0,0.0,25.24,0.01,-0.0,180.0,0.0,0.0,0.0,0.0,0,99.99,0.0
20287738,1766326452245502,0,0,-0.000346,0.000565,1.002378,0.007126,-0.021164,-0.00766,0.0,0.0,0.0,25.23,0.05,0.02,180.0,0.0,0.0,0.0,0.0,0,99.99,0.0
20317731,1766326452275495,0,0,-0.000529,0.00087,1.004148,0.014755,-0.021164,-3.1e-05,0.0,0.0,0.0,25.24,0.05,0.02,180.0,0.0,0.0,0.0,0.0,0,99.99,0.0
20345733,1766326452303497,0,0,-0.000285,0.000443,1.002988,0.007126,-0.005905,0.022858,0.0,0.0,0.0,25.24,0.01,0.02,180.0,0.0,0.0,0.0,0.0,0,99.99,0.0
20374731,1766326452332495,0,0,-0.000163,0.000748,1.002256,0.007126,-0.005905,0.007599,0.0,0.0,0.0,25.24,0.06,0.01,180.0,0.0,0.0,0.0,0.0,0,99.99,0.0
20418730,1766326452376494,0,0,0.000203,0.000138,1.003538,-0.015762,0.001724,-3.1e-05,0.0,0.0,0.0,25.25,0.0,-0.02,180.0,0.0,0.0,0.0,0.0,0,99.99,0.0
20448732,1766326452406496,0,0,-0.000224,0.000687,1.004392,-0.023392,-0.028793,0.022858,0.0,0.0,0.0,25.25,0.03,0.0,180.0,0.0,0.0,0.0,0.0,0,99.99,0.0
20476730,1766326452434494,0,0,-0.000163,0.00026,1.003477,-0.008133,-0.028793,-0.00766,0.0,0.0,0.0,25.25,0.0,0.0,180.0,0.0,0.0,0.0,0.0,0,99.99,0.0
20504731,1766326452462495,0,0,-0.000346,-4.6e-05,1.002256,-0.000503,-0.005905,-0.015289,0.0,0.0,0.0,25.25,-0.0,0.02,180.0,0.0,0.0,0.0,0.0,0,99.99,0.0
20533730,1766326452491494,0,0,0.000142,1.6e-05,1.003355,0.014755,0.001724,-0.061066,0.0,0.0,0.0,25.24,-0.01,0.01,180.0,0.0,0.0,0.0,0.0,0,99.99,0.0
20562732,1766326452520496,0,0,-0.000651,0.000382,1.003599,-0.000503,0.001724,-0.061066,0.0,0.0,0.0,25.24,0.02,0.05,180.0,0.0,0.0,0.0,0.0,0,99.99,0.0
20591730,1766326452549494,0,0,0.000142,0.000504,1.002622,-0.008133,-0.021164,-0.038177,0.0,0.0,0.0,25.25,0.01,-0.02,180.0,0.0,0.0,0.0,0.0,0,99.99,0.0
20620732,1766326452578496,0,0,0.000264,0.000626,1.003049,-0.023392,-0.028793,-3.1e-05,0.0,0.0,0.0,25.24,0.02,-0.02,180.0,0.0,0.0,0.0,0.0,0,99.99,0.0
20648730,1766326452606494,0,0,8.1e-05,0.000687,1.002744,0.007126,-0.028793,0.007599,0.0,0.0,0.0,25.24,0.06,-0.0,180.0,0.0,0.0,0.0,0.0,0,99.99,0.0
20677730,1766326452635494,0,0,0.000264,0.000931,1.00311,-0.015762,-0.021164,0.030487,0.0,0.0,0.0,25.24,0.06,-0.02,180.0,0.0,0.0,0.0,0.0,0,99.99,0.0
20706730,1766326452664494,0,0,-0.000285,0.000443,1.002744,-0.008133,-0.005905,0.053375,0.0,0.0,0.0,25.24,0.02,0.02,180.0,0.0,0.0,0.0,0.0,0,99.99,0.0
20735731,1766326452693495,0,0,-0.000468,0.000687,1.001829,-0.008133,-0.021164,-0.00766,0.0,0.0,0.0,25.25,0.04,0.02,180.0,0.0,0.0,0.0,0.0,0,99.99,0.0
20764730,1766326452722494,0,0,-0.000468,0.000687,1.002134,-0.023392,-0.036423,-0.00766,0.0,0.0,0.0,25.24,0.04,0.01,180.0,0.0,0.0,0.0,0.0,0,99.99,0.0
20782731,1766326452740495,0,0,0.000752,0.000138,1.002256,-0.000503,-0.036423,0.007599,0.0,0.0,0.0,25.24,0.0,-0.04,180.0,0.0,0.0,0.0,0.0,0,99.99,0.0
20812730,1766326452770494,0,0,0.000142,-0.000229,1.004148,-0.008133,-0.059311,-3.1e-05,0.0,0.0,0.0,25.24,-0.02,-0.01,180.0,0.0,0.0,0.0,0.0,0,99.99,0.0
20851731,1766326452809495,0,0,-0.000224,0.000748,1.00311,0.022385,-0.028793,0.015228,0.0,0.0,0.0,25.24,0.02,0.01,180.0,0.0,0.0,0.0,0.0,0,99.99,0.0
20879730,1766326452837494,0,0,0.000691,0.000931,1.003294,-0.000503,-0.013535,0.007599,0.0,0.0,0.0,25.24,0.05,-0.04,180.0,0.0,0.0,0.0,0.0,0,99.99,0.0
20908730,1766326452866494,0,0,0.000447,0.001419,1.002988,0.007126,-0.028793,-3.1e-05,0.0,0.0,0.0,25.24,0.1,-0.03,180.0,0.0,0.0,0.0,0.0,0,99.99,0.0
20938730,1766326452896494,0,0,8.1e-05,0.001053,1.004636,0.014755,-0.028793,-0.045807,0.0,0.0,0.0,25.24,0.07,-0.01,180.0,0.0,0.0,0.0,0.0,0,99.99,0.0
20972730,1766326452930494,0,0,0.000508,0.000809,1.005002,-0.008133,-0.036423,-3.1e-05,0.0,0.0,0.0,25.24,0.06,-0.04,180.0,0.0,0.0,0.0,0.0,0,99.99,0.0
21000739,1766326452958503,0,0,0.00063,0.000504,1.003171,-0.03865,-0.021164,-0.015289,0.0,0.0,0.0,25.25,0.03,-0.04,180.0,0.0,0.0,0.0,0.0,0,99.99,0.0
21030730,1766326452988494,0,0,-0.000407,0.000626,1.003416,-0.015762,-0.021164,-3.1e-05,0.0,0.0,0.0,25.24,0.03,0.02,180.0,0.0,0.0,0.0,0.0,0,99.99,0.0
21061731,1766326453019495,0,0,0.000386,0.000504,1.003904,0.030014,-0.044052,-0.022919,0.0,0.0,0.0,25.24,0.02,-0.02,180.0,0.0,0.0,0.0,0.0,0,99.99,0.0
21088731,1766326453046495,0,0,2e-05,0.000443,1.002988,-0.000503,-0.021164,-0.00766,0.0,0.0,0.0,25.24,0.03,-0.0,180.0,0.0,0.0,0.0,0.0,0,99.99,0.0
21116731,1766326453074495,0,0,0.000203,0.000382,1.003843,0.007126,-0.013535,-3.1e-05,0.0,0.0,0.0,25.25,0.02,-0.01,180.0,0.0,0.0,0.0,0.0,0,99.99,0.0
21145731,1766326453103495,0,0,0.000264,0.00026,1.003477,0.007126,-0.021164,0.007599,0.0,0.0,0.0,25.24,0.02,-0.01,180.0,0.0,0.0,0.0,0.0,0,99.99,0.0
21175739,1766326453133503,0,0,0.000569,1.6e-05,1.004392,-0.008133,-0.005905,0.007599,0.0,0.0,0.0,25.25,-0.01,-0.02,180.0,0.0,0.0,0.0,0.0,0,99.99,0.0
21205730,1766326453163494,0,0,0.000142,0.000931,1.005064,0.007126,0.001724,-0.022919,0.0,0.0,0.0,25.25,0.06,-0.03,180.0,0.0,0.0,0.0,0.0,0,99.99,0.0
21220732,1766326453178496,0,0,-4.1e-05,0.000626,1.004636,0.022385,-0.013535,-0.022919,0.0,0.0,0.0,25.25,0.05,0.02,180.0,0.0,0.0,0.0,0.0,0,99.99,0.0
21248730,1766326453206494,0,0,-0.000407,0.000565,1.003171,-0.008133,-0.021164,-0.038177,0.0,0.0,0.0,25.25,0.04,0.04,180.0,0.0,0.0,0.0,0.0,0,99.99,0.0
21279730,1766326453237494,0,0,-0.000285,0.001175,1.001829,-0.000503,-0.021164,-0.022919,0.0,0.0,0.0,25.25,0.08,0.02,180.0,0.0,0.0,0.0,0.0,0,99.99,0.0
21317731,1766326453275495,0,0,-0.000835,0.000504,1.003416,-0.03865,0.001724,-3.1e-05,0.0,0.0,0.0,25.24,0.03,0.05,180.0,0.0,0.0,0.0,0.0,0,99.99,0.0
21347730,1766326453305494,0,0,-0.000163,0.000687,1.003049,-0.023392,-0.036423,-3.1e-05,0.0,0.0,0.0,25.25,0.04,0.01,180.0,0.0,0.0,0.0,0.0,0,99.99,0.0
21376730,1766326453334494,0,0,-0.000713,0.000748,1.002683,-0.015762,-0.013535,-0.00766,0.0,0.0,0.0,25.24,0.04,0.04,180.0,0.0,0.0,0.0,0.0,0,99.99,0.0
21411734,1766326453369498,0,0,0.000142,0.000687,1.003232,-0.000503,0.001724,0.015228,0.0,0.0,0.0,25.24,0.04,-0.01,180.0,0.0,0.0,0.0,0.0,0,99.99,0.0
21457737,1766326453415501,0,0,-0.000285,0.000382,1.004148,0.022385,-0.005905,-3.1e-05,0.0,0.0,0.0,25.25,0.04,0.02,180.0,0.0,0.0,0.0,0.0,0,99.99,0.0
21493732,1766326453451496,0,0,-0.000468,0.000443,1.00311,0.014755,-0.051682,0.038116,0.0,0.0,0.0,25.24,0.03,0.02,180.0,0.0,0.0,0.0,0.0,0,99.99,0.0
21552730,1766326453510494,0,0,-0.000346,7.7e-05,1.004331,-0.000503,-0.028793,0.030487,0.0,0.0,0.0,25.24,0.02,0.01,180.0,0.0,0.0,0.0,0.0,0,99.99,0.0
21586730,1766326453544494,0,0,-0.000835,0.000321,1.004148,-0.03865,-0.021164,-0.015289,0.0,0.0,0.0,25.25,0.01,0.04,180.0,0.0,0.0,0.0,0.0,0,99.99,0.0
21613731,1766326453571495,0,0,-0.001323,-4.6e-05,1.004941,-0.015762,-0.028793,-0.045807,0.0,0.0,0.0,25.24,-0.0,0.08,180.0,0.0,0.0,0.0,0.0,0,99.99,0.0
21643730,1766326453601494,0,0,-0.00114,0.00026,1.003416,-0.04628,-0.013535,-0.061066,0.0,0.0,0.0,25.24,0.01,0.07,180.0,0.0,0.0,0.0,0.0,0,99.99,0.0
21681733,1766326453639497,0,0,-0.000774,0.000565,1.004087,-0.000503,-0.013535,-0.045807,0.0,0.0,0.0,25.25,0.03,0.04,180.0,0.0,0.0,0.0,0.0,0,99.99,0.0
21710730,1766326453668494,0,0,-0.001018,0.000931,1.003599,-0.000503,-0.036423,-3.1e-05,0.0,0.0,0.0,25.25,0.05,0.06,180.0,0.0,0.0,0.0,0.0,0,99.99,0.0
21741730,1766326453699494,0,0,0.000203,0.00087,1.003355,-0.008133,-0.005905,-0.00766,0.0,0.0,0.0,25.25,0.04,-0.03,180.0,0.0,0.0,0.0,0.0,0,99.99,0.0
21771731,1766326453729495,0,0,-0.000407,0.00087,1.003355,-0.015762,-0.005905,0.007599,0.0,0.0,0.0,25.24,0.06,0.01,180.0,0.0,0.0,0.0,0.0,0,99.99,0.0
21802731,1766326453760495,0,0,-0.000285,0.000992,1.004392,-0.04628,-0.013535,-0.030548,0.0,0.0,0.0,25.25,0.06,0.02,180.0,0.0,0.0,0.0,0.0,0,99.99,0.0
21846731,1766326453804495,0,0,-0.000651,0.00087,1.004087,-0.023392,-0.028793,0.015228,0.0,0.0,0.0,25.25,0.04,0.03,180.0,0.0,0.0,0.0,0.0,0,99.99,0.0
21876730,1766326453834494,0,0,-0.000529,0.000199,1.002866,-0.000503,-0.044052,-3.1e-05,0.0,0.0,0.0,25.25,-0.01,0.03,180.0,0.0,0.0,0.0,0.0,0,99.99,0.0
21906731,1766326453864495,0,0,-0.000346,-0.000229,1.003049,-0.015762,-0.051682,0.007599,0.0,0.0,0.0,25.24,-0.02,0.02,180.0,0.0,0.0,0.0,0.0,0,99.99,0.0
21935732,1766326453893496,0,0,-0.000651,0.000565,1.004514,-0.031021,-0.021164,0.022858,0.0,0.0,0.0,25.25,0.03,0.02,180.0,0.0,0.0,0.0,0.0,0,99.99,0.0
21964732,1766326453922496,0,0,8.1e-05,0.000443,1.004392,-0.015762,0.001724,0.038116,0.0,0.0,0.0,25.25,0.04,-0.02,180.0,0.0,0.0,0.0,0.0,0,99.99,0.0
21995730,1766326453953494,0,0,-0.000346,0.00026,1.003232,0.007126,-0.028793,0.038116,0.0,0.0,0.0,25.25,0.01,0.02,180.0,0.0,0.0,0.0,0.0,0,99.99,0.0
22026730,1766326453984494,0,0,-0.000224,0.000504,1.003232,-0.000503,-0.021164,0.007599,0.0,0.0,0.0,25.24,0.03,0.01,180.0,0.0,0.0,0.0,0.0,0,99.99,0.0
22056730,1766326454014494,0,0,-0.000468,0.000504,1.003721,0.014755,-0.036423,-0.022919,0.0,0.0,0.0,25.24,0.02,0.02,180.0,0.0,0.0,0.0,0.0,0,99.99,0.0
22086730,1766326454044494,0,0,-0.000346,0.00087,1.005002,0.014755,-0.044052,-0.061066,0.0,0.0,0.0,25.25,0.04,0.03,180.0,0.0,0.0,0.0,0.0,0,99.99,0.0
22117980,1766326454075744,0,0,-0.000102,-0.000168,1.004453,0.014755,-0.028793,-0.030548,0.0,0.0,0.0,25.24,-0.02,-0.0,180.0,0.0,0.0,0.0,0.0,0,99.99,0.0
22150730,1766326454108494,0,0,-0.000102,-4.6e-05,1.003538,0.014755,0.016983,-0.00766,0.0,0.0,0.0,25.24,-0.0,0.01,180.0,0.0,0.0,0.0,0.0,0,99.99,0.0
22178731,1766326454136495,0,0,-4.1e-05,0.000443,1.00366,-0.000503,0.001724,0.030487,0.0,0.0,0.0,25.25,0.03,-0.01,180.0,0.0,0.0,0.0,0.0,0,99.99,0.0
22207730,1766326454165494,0,0,-0.000468,0.000321,1.002195,-0.008133,-0.013535,-3.1e-05,0.0,0.0,0.0,25.25,0.02,0.03,180.0,0.0,0.0,0.0,0.0,0,99.99,0.0
22237730,1766326454195494,0,0,-0.000346,0.000321,1.002683,0.007126,-0.044052,-0.015289,0.0,0.0,0.0,25.25,0.02,0.01,180.0,0.0,0.0,0.0,0.0,0,99.99,0.0
22279732,1766326454237496,0,0,-0.000285,0.000199,1.002256,-0.008133,-0.028793,0.022858,0.0,0.0,0.0,25.24,0.01,0.02,180.0,0.0,0.0,0.0,0.0,0,99.99,0.0
22310730,1766326454268494,0,0,-0.000285,0.000504,1.003904,0.014755,0.009354,-0.038177,0.0,0.0,0.0,25.24,0.03,0.02,180.0,0.0,0.0,0.0,0.0,0,99.99,0.0
22340730,1766326454298494,0,0,8.1e-05,0.000321,1.004331,0.007126,0.001724,-0.045807,0.0,0.0,0.0,25.25,0.02,0.01,180.0,0.0,0.0,0.0,0.0,0,99.99,0.0
22374732,1766326454332496,0,0,-4.1e-05,0.000565,1.002988,-0.008133,0.024612,-0.030548,0.0,0.0,0.0,25.26,0.02,0.01,180.0,0.0,0.0,0.0,0.0,0,99.99,0.0
22408738,1766326454366502,0,0,0.000569,0.000748,1.002317,0.007126,0.024612,-0.015289,0.0,0.0,0.0,25.25,0.05,-0.04,180.0,0.0,0.0,0.0,0.0,0,99.99,0.0
22438730,1766326454396494,0,0,0.000386,0.000504,1.002988,-0.000503,0.009354,-3.1e-05,0.0,0.0,0.0,25.25,0.02,-0.01,180.0,0.0,0.0,0.0,0.0,0,99.99,0.0
22468731,1766326454426495,0,0,0.000203,0.000443,1.002866,-0.031021,-0.013535,-0.00766,0.0,0.0,0.0,25.25,0.02,-0.01,180.0,0.0,0.0,0.0,0.0,0,99.99,0.0
22498738,1766326454456502,0,0,-0.000163,0.00026,1.003782,-0.023392,-0.005905,0.007599,0.0,0.0,0.0,25.25,0.01,0.0,180.0,0.0,0.0,0.0,0.0,0,99.99,0.0
22527730,1766326454485494,0,0,-0.000651,0.000199,1.002927,-0.023392,-0.028793,0.030487,0.0,0.0,0.0,25.25,0.01,0.05,180.0,0.0,0.0,0.0,0.0,0,99.99,0.0
22557730,1766326454515494,0,0,-0.000407,0.000321,1.004026,-0.04628,-0.021164,-0.00766,0.0,0.0,0.0,25.24,0.03,0.02,180.0,0.0,0.0,0.0,0.0,0,99.99,0.0
22587734,1766326454545498,0,0,-0.000774,1.6e-05,1.003721,-0.008133,-0.021164,-0.076324,0.0,0.0,0.0,25.25,-0.0,0.04,180.0,0.0,0.0,0.0,0.0,0,99.99,0.0
22618730,1766326454576494,0,0,-0.000529,0.000321,1.004087,-0.015762,-0.036423,-0.022919,0.0,0.0,0.0,25.24,0.02,0.03,180.0,0.0,0.0,0.0,0.0,0,99.99,0.0
22648731,1766326454606495,0,0,-0.000774,0.000504,1.003843,-0.000503,-0.059311,-0.022919,0.0,0.0,0.0,25.25,0.02,0.04,180.0,0.0,0.0,0.0,0.0,0,99.99,0.0
22676730,1766326454634494,0,0,-0.000651,0.000443,1.00366,0.014755,-0.036423,-0.015289,0.0,0.0,0.0,25.25,0.02,0.03,180.0,0.0,0.0,0.0,0.0,0,99.99,0.0
22709732,1766326454667496,0,0,-0.000713,0.000809,1.002195,-0.008133,-0.051682,-0.022919,0.0,0.0,0.0,25.25,0.03,0.03,180.0,0.0,0.0,0.0,0.0,0,99.99,0.0
22747731,1766326454705495,0,0,-0.001201,0.000748,1.00427,0.014755,-0.036423,0.015228,0.0,0.0,0.0,25.24,0.06,0.08,180.0,0.0,0.0,0.0,0.0,0,99.99,0.0
22778730,1766326454736494,0,0,-0.000224,0.000992,1.003965,-0.031021,-0.051682,-0.022919,0.0,0.0,0.0,25.24,0.04,0.02,180.0,0.0,0.0,0.0,0.0,0,99.99,0.0
22807730,1766326454765494,0,0,-0.000651,0.000443,1.003904,0.014755,-0.044052,0.038116,0.0,0.0,0.0,25.25,0.02,0.05,180.0,0.0,0.0,0.0,0.0,0,99.99,0.0
22826732,1766326454784496,0,0,-0.000346,0.000382,1.003416,-0.015762,-0.051682,0.038116,0.0,0.0,0.0,25.25,0.03,0.03,180.0,0.0,0.0,0.0,0.0,0,99.99,0.0
22856731,1766326454814495,0,0,-0.000468,0.00087,1.003294,-0.023392,-0.013535,0.007599,0.0,0.0,0.0,25.26,0.04,0.01,180.0,0.0,0.0,0.0,0.0,0,99.99,0.0
22886730,1766326454844494,0,0,-0.000102,0.000687,1.00311,-0.03865,-0.028793,-0.00766,0.0,0.0,0.0,25.25,0.03,0.02,180.0,0.0,0.0,0.0,0.0,0,99.99,0.0
22917738,1766326454875502,0,0,-4.1e-05,0.000565,1.001768,-0.053909,-0.036423,-3.1e-05,0.0,0.0,0.0,25.25,0.02,0.0,180.0,0.0,0.0,0.0,0.0,0,99.99,0.0
22949731,1766326454907495,0,0,-0.000896,0.000138,1.003904,0.014755,-0.036423,0.038116,0.0,0.0,0.0,25.23,0.01,0.07,180.0,0.0,0.0,0.0,0.0,0,99.99,0.0
22977730,1766326454935494,0,0,-0.000835,0.000321,1.00366,-0.008133,-0.036423,0.053375,0.0,0.0,0.0,25.24,0.02,0.03,180.0,0.0,0.0,0.0,0.0,0,99.99,0.0
23005731,1766326454963495,0,0,-0.001201,-0.0009,1.003232,-0.03865,-0.028793,-3.1e-05,0.0,0.0,0.0,25.24,-0.07,0.08,180.0,0.0,0.0,0.0,0.0,0,99.99,0.0
23036731,1766326454994495,0,0,-0.000468,-0.000412,1.003721,-0.023392,0.001724,-0.022919,0.0,0.0,0.0,25.24,-0.01,0.03,180.0,0.0,0.0,0.0,0.0,0,99.99,0.0
23066730,1766326455024494,0,0,0.000203,0.000626,1.004209,-0.015762,-0.028793,-3.1e-05,0.0,0.0,0.0,25.25,0.05,-0.02,180.0,0.0,0.0,0.0,0.0,0,99.99,0.0
23096730,1766326455054494,0,0,-0.000468,0.000992,1.003232,-0.015762,-0.021164,-3.1e-05,0.0,0.0,0.0,25.24,0.06,0.02,180.0,0.0,0.0,0.0,0.0,0,99.99,0.0
23126730,1766326455084494,0,0,-0.000102,0.000565,1.002439,-0.015762,-0.051682,-3.1e-05,0.0,0.0,0.0,25.24,0.03,-0.0,180.0,0.0,0.0,0.0,0.0,0,99.99,0.0
23157980,1766326455115744,0,0,-0.000224,0.000382,1.002622,-0.023392,-0.044052,0.007599,0.0,0.0,0.0,25.24,0.03,-0.0,180.0,0.0,0.0,0.0,0.0,0,99.99,0.0
23203731,1766326455161495,0,0,-0.000651,0.00026,1.00488,-0.053909,-0.044052,-3.1e-05,0.0,0.0,0.0,25.24,0.01,0.04,180.0,0.0,0.0,0.0,0.0,0,99.99,0.0
23232738,1766326455190502,0,0,-0.000407,-0.000229,1.004331,-0.04628,-0.044052,-0.061066,0.0,0.0,0.0,25.25,-0.0,0.02,180.0,0.0,0.0,0.0,0.0,0,99.99,0.0
23262730,1766326455220494,0,0,-0.000285,-0.000168,1.003782,-0.008133,-0.036423,-0.015289,0.0,0.0,0.0,25.25,0.0,0.03,180.0,0.0,0.0,0.0,0.0,0,99.99,0.0
